{
  "odata.metadata": "http://datamall2.mytransport.sg/ltaodataservice/$metadata#TaxiStands",
  "value": [
    {
      "taxicode": "66",
      "latitude": 51.5902809,
      "longitude": 19.6814345,
      "bfa": true,
      "ownership": "Trunyx",
      "type": "Hill",
      "Name": "Stuart"
    },
    {
      "taxicode": "008",
      "latitude": 14.8548805,
      "longitude": -91.3582385,
      "bfa": false,
      "ownership": "Fadeo",
      "type": "Parkway",
      "Name": "Coleman"
    },
    {
      "taxicode": "29666",
      "latitude": 53.0651548,
      "longitude": 20.3482376,
      "bfa": false,
      "ownership": "Omba",
      "type": "Place",
      "Name": "Mallard"
    },
    {
      "taxicode": "83320",
      "latitude": -6.931773,
      "longitude": 113.600427,
      "bfa": false,
      "ownership": "Viva",
      "type": "Street",
      "Name": "Michigan"
    },
    {
      "taxicode": "9844",
      "latitude": 50.1837815,
      "longitude": 33.6817424,
      "bfa": true,
      "ownership": "Dabtype",
      "type": "Way",
      "Name": "Old Shore"
    },
    {
      "taxicode": "027",
      "latitude": 45.6585294,
      "longitude": -122.4979879,
      "bfa": true,
      "ownership": "Skyndu",
      "type": "Crossing",
      "Name": "Veith"
    },
    {
      "taxicode": "4",
      "latitude": 49.988694,
      "longitude": 6.0001426,
      "bfa": true,
      "ownership": "Skipfire",
      "type": "Way",
      "Name": "Drewry"
    },
    {
      "taxicode": "71116",
      "latitude": 7.7630152,
      "longitude": 5.7247169,
      "bfa": true,
      "ownership": "Oyope",
      "type": "Road",
      "Name": "Marquette"
    },
    {
      "taxicode": "64753",
      "latitude": 50.5251922,
      "longitude": 16.8791589,
      "bfa": true,
      "ownership": "Youspan",
      "type": "Court",
      "Name": "Milwaukee"
    },
    {
      "taxicode": "085",
      "latitude": 10.5083266,
      "longitude": 106.8635004,
      "bfa": false,
      "ownership": "Yadel",
      "type": "Crossing",
      "Name": "Oak"
    },
    {
      "taxicode": "4426",
      "latitude": 15.4963503,
      "longitude": 101.6385328,
      "bfa": false,
      "ownership": "Jazzy",
      "type": "Road",
      "Name": "Weeping Birch"
    },
    {
      "taxicode": "28",
      "latitude": 49.6085752,
      "longitude": 16.6797892,
      "bfa": false,
      "ownership": "Brightdog",
      "type": "Alley",
      "Name": "Luster"
    },
    {
      "taxicode": "31974",
      "latitude": -26.8191146,
      "longitude": -55.0182151,
      "bfa": false,
      "ownership": "Skipfire",
      "type": "Junction",
      "Name": "Spenser"
    },
    {
      "taxicode": "6923",
      "latitude": 49.0511571,
      "longitude": 4.0911917,
      "bfa": false,
      "ownership": "Skyndu",
      "type": "Place",
      "Name": "Lerdahl"
    },
    {
      "taxicode": "235",
      "latitude": -15.12142,
      "longitude": -70.929367,
      "bfa": true,
      "ownership": "Twitterwire",
      "type": "Crossing",
      "Name": "Beilfuss"
    },
    {
      "taxicode": "64915",
      "latitude": -3.3939043,
      "longitude": 120.3608455,
      "bfa": false,
      "ownership": "Shuffledrive",
      "type": "Crossing",
      "Name": "Lotheville"
    },
    {
      "taxicode": "4643",
      "latitude": 31.2303904,
      "longitude": 121.4737021,
      "bfa": true,
      "ownership": "Yambee",
      "type": "Hill",
      "Name": "Becker"
    },
    {
      "taxicode": "4",
      "latitude": 51.66677,
      "longitude": -105.46788,
      "bfa": false,
      "ownership": "Realpoint",
      "type": "Circle",
      "Name": "Green Ridge"
    },
    {
      "taxicode": "08297",
      "latitude": 36.604225,
      "longitude": 116.249785,
      "bfa": true,
      "ownership": "Npath",
      "type": "Pass",
      "Name": "2nd"
    },
    {
      "taxicode": "7618",
      "latitude": 40.6021201,
      "longitude": 20.5118628,
      "bfa": true,
      "ownership": "Skiptube",
      "type": "Point",
      "Name": "Nobel"
    },
    {
      "taxicode": "8",
      "latitude": 49.2575136,
      "longitude": 106.4385875,
      "bfa": false,
      "ownership": "Blogpad",
      "type": "Point",
      "Name": "Redwing"
    },
    {
      "taxicode": "24",
      "latitude": 25.464681,
      "longitude": 99.541236,
      "bfa": true,
      "ownership": "Eidel",
      "type": "Crossing",
      "Name": "Milwaukee"
    },
    {
      "taxicode": "18",
      "latitude": 27.950753,
      "longitude": 109.592921,
      "bfa": false,
      "ownership": "Innotype",
      "type": "Terrace",
      "Name": "Corscot"
    },
    {
      "taxicode": "1609",
      "latitude": -15.66758,
      "longitude": -72.534439,
      "bfa": false,
      "ownership": "Quimba",
      "type": "Junction",
      "Name": "Dawn"
    },
    {
      "taxicode": "8881",
      "latitude": 27.3423771,
      "longitude": 53.1803558,
      "bfa": false,
      "ownership": "Dabtype",
      "type": "Lane",
      "Name": "Pawling"
    },
    {
      "taxicode": "53",
      "latitude": -13.470532,
      "longitude": -72.8795,
      "bfa": true,
      "ownership": "Rhycero",
      "type": "Terrace",
      "Name": "Troy"
    },
    {
      "taxicode": "89",
      "latitude": 3.191408,
      "longitude": 113.088634,
      "bfa": false,
      "ownership": "Aimbu",
      "type": "Alley",
      "Name": "Holy Cross"
    },
    {
      "taxicode": "5254",
      "latitude": 15.1105068,
      "longitude": 105.8172881,
      "bfa": true,
      "ownership": "Gabtype",
      "type": "Way",
      "Name": "Kim"
    },
    {
      "taxicode": "9",
      "latitude": -7.3064311,
      "longitude": 110.1584347,
      "bfa": true,
      "ownership": "Latz",
      "type": "Street",
      "Name": "Packers"
    },
    {
      "taxicode": "68107",
      "latitude": 50.8294542,
      "longitude": 19.2859852,
      "bfa": true,
      "ownership": "DabZ",
      "type": "Lane",
      "Name": "Forest Run"
    },
    {
      "taxicode": "2566",
      "latitude": -7.2929068,
      "longitude": 107.2666396,
      "bfa": false,
      "ownership": "Eazzy",
      "type": "Lane",
      "Name": "Dexter"
    },
    {
      "taxicode": "18518",
      "latitude": 59.3730045,
      "longitude": 17.0201379,
      "bfa": false,
      "ownership": "Dynava",
      "type": "Trail",
      "Name": "Green"
    },
    {
      "taxicode": "62",
      "latitude": 28.94074,
      "longitude": 113.447431,
      "bfa": true,
      "ownership": "Layo",
      "type": "Point",
      "Name": "Mcguire"
    },
    {
      "taxicode": "4",
      "latitude": 46.8071439,
      "longitude": 33.5698471,
      "bfa": true,
      "ownership": "Kanoodle",
      "type": "Point",
      "Name": "Melby"
    },
    {
      "taxicode": "3",
      "latitude": 18.8539206,
      "longitude": -71.3009387,
      "bfa": true,
      "ownership": "Flipbug",
      "type": "Crossing",
      "Name": "Ronald Regan"
    },
    {
      "taxicode": "04007",
      "latitude": 10.9525339,
      "longitude": 125.027158,
      "bfa": false,
      "ownership": "Aimbo",
      "type": "Parkway",
      "Name": "Nelson"
    },
    {
      "taxicode": "9",
      "latitude": 42.08336,
      "longitude": 21.05994,
      "bfa": true,
      "ownership": "Camido",
      "type": "Way",
      "Name": "Garrison"
    },
    {
      "taxicode": "17436",
      "latitude": 41.0377245,
      "longitude": 21.3300873,
      "bfa": true,
      "ownership": "BlogXS",
      "type": "Center",
      "Name": "Pepper Wood"
    },
    {
      "taxicode": "3467",
      "latitude": 30.378737,
      "longitude": 112.649998,
      "bfa": true,
      "ownership": "Oodoo",
      "type": "Lane",
      "Name": "Hoffman"
    },
    {
      "taxicode": "2202",
      "latitude": -12.6654745,
      "longitude": -38.5900375,
      "bfa": true,
      "ownership": "Meevee",
      "type": "Junction",
      "Name": "Westridge"
    },
    {
      "taxicode": "86582",
      "latitude": -8.2962,
      "longitude": 111.5437,
      "bfa": false,
      "ownership": "Shuffledrive",
      "type": "Crossing",
      "Name": "Anniversary"
    },
    {
      "taxicode": "663",
      "latitude": 33.207199,
      "longitude": -87.5482025,
      "bfa": true,
      "ownership": "Thoughtsphere",
      "type": "Terrace",
      "Name": "Kingsford"
    },
    {
      "taxicode": "5609",
      "latitude": 52.8056388,
      "longitude": 37.2283674,
      "bfa": true,
      "ownership": "Feedmix",
      "type": "Drive",
      "Name": "Lyons"
    },
    {
      "taxicode": "0470",
      "latitude": 11.9924294,
      "longitude": 105.4645408,
      "bfa": true,
      "ownership": "Jabberstorm",
      "type": "Court",
      "Name": "David"
    },
    {
      "taxicode": "742",
      "latitude": 8.3263397,
      "longitude": -72.0907994,
      "bfa": false,
      "ownership": "Realcube",
      "type": "Parkway",
      "Name": "Corscot"
    },
    {
      "taxicode": "09494",
      "latitude": 33.4614354,
      "longitude": 9.0294708,
      "bfa": true,
      "ownership": "Kaymbo",
      "type": "Point",
      "Name": "Ludington"
    },
    {
      "taxicode": "38110",
      "latitude": 46.00582,
      "longitude": 40.45682,
      "bfa": true,
      "ownership": "Thoughtworks",
      "type": "Court",
      "Name": "Summit"
    },
    {
      "taxicode": "6221",
      "latitude": 41.3537964,
      "longitude": -8.540112,
      "bfa": false,
      "ownership": "Avamm",
      "type": "Terrace",
      "Name": "Talisman"
    },
    {
      "taxicode": "05",
      "latitude": 47.535711,
      "longitude": 29.4562298,
      "bfa": true,
      "ownership": "Dabvine",
      "type": "Junction",
      "Name": "Holmberg"
    },
    {
      "taxicode": "8939",
      "latitude": 54.920665,
      "longitude": 43.347223,
      "bfa": true,
      "ownership": "Oyoyo",
      "type": "Pass",
      "Name": "Mitchell"
    },
    {
      "taxicode": "085",
      "latitude": 41.3047616,
      "longitude": 69.2817267,
      "bfa": true,
      "ownership": "Roomm",
      "type": "Point",
      "Name": "Thierer"
    },
    {
      "taxicode": "03664",
      "latitude": 50.239411,
      "longitude": 30.5455655,
      "bfa": false,
      "ownership": "Voomm",
      "type": "Lane",
      "Name": "Talmadge"
    },
    {
      "taxicode": "1157",
      "latitude": 22.556499,
      "longitude": 114.236875,
      "bfa": false,
      "ownership": "Flashset",
      "type": "Plaza",
      "Name": "Barby"
    },
    {
      "taxicode": "89",
      "latitude": 7.1801552,
      "longitude": 79.8842521,
      "bfa": true,
      "ownership": "Twitternation",
      "type": "Park",
      "Name": "Roxbury"
    },
    {
      "taxicode": "36667",
      "latitude": -8.0591896,
      "longitude": 112.2014675,
      "bfa": true,
      "ownership": "Trilith",
      "type": "Trail",
      "Name": "Swallow"
    },
    {
      "taxicode": "43",
      "latitude": 41.3575049,
      "longitude": -8.3482785,
      "bfa": false,
      "ownership": "Thoughtstorm",
      "type": "Place",
      "Name": "Maple Wood"
    },
    {
      "taxicode": "03191",
      "latitude": 55.9206837,
      "longitude": -3.5420426,
      "bfa": false,
      "ownership": "Browsecat",
      "type": "Center",
      "Name": "Charing Cross"
    },
    {
      "taxicode": "27",
      "latitude": 5.1744472,
      "longitude": 7.7145152,
      "bfa": false,
      "ownership": "Flashpoint",
      "type": "Way",
      "Name": "Jay"
    },
    {
      "taxicode": "38586",
      "latitude": 51.3100484,
      "longitude": 156.9842018,
      "bfa": false,
      "ownership": "Reallinks",
      "type": "Terrace",
      "Name": "Delladonna"
    },
    {
      "taxicode": "6590",
      "latitude": 44.5241143,
      "longitude": 18.0994197,
      "bfa": false,
      "ownership": "Vipe",
      "type": "Park",
      "Name": "Shasta"
    },
    {
      "taxicode": "9694",
      "latitude": 34.6672527,
      "longitude": 70.2117178,
      "bfa": false,
      "ownership": "Skimia",
      "type": "Way",
      "Name": "Walton"
    },
    {
      "taxicode": "171",
      "latitude": -6.2686878,
      "longitude": 139.9469432,
      "bfa": true,
      "ownership": "Youspan",
      "type": "Road",
      "Name": "Daystar"
    },
    {
      "taxicode": "8256",
      "latitude": 6.6101493,
      "longitude": 0.4785495,
      "bfa": true,
      "ownership": "Browsebug",
      "type": "Pass",
      "Name": "Rusk"
    },
    {
      "taxicode": "58",
      "latitude": 50.6199,
      "longitude": 26.251617,
      "bfa": true,
      "ownership": "Aibox",
      "type": "Pass",
      "Name": "Columbus"
    },
    {
      "taxicode": "8",
      "latitude": -8.271291,
      "longitude": 124.725037,
      "bfa": true,
      "ownership": "Flipstorm",
      "type": "Plaza",
      "Name": "Crowley"
    },
    {
      "taxicode": "9648",
      "latitude": 34.92357,
      "longitude": 36.48598,
      "bfa": false,
      "ownership": "Tagopia",
      "type": "Alley",
      "Name": "Nelson"
    },
    {
      "taxicode": "2",
      "latitude": 8.9721547,
      "longitude": 37.8618422,
      "bfa": true,
      "ownership": "Realmix",
      "type": "Parkway",
      "Name": "Rockefeller"
    },
    {
      "taxicode": "50280",
      "latitude": 17.372649,
      "longitude": 120.770342,
      "bfa": false,
      "ownership": "Skyndu",
      "type": "Park",
      "Name": "Grasskamp"
    },
    {
      "taxicode": "51190",
      "latitude": 22.972973,
      "longitude": 113.561495,
      "bfa": true,
      "ownership": "Shuffledrive",
      "type": "Court",
      "Name": "Debs"
    },
    {
      "taxicode": "5",
      "latitude": 7.3060304,
      "longitude": 122.8447025,
      "bfa": true,
      "ownership": "Ozu",
      "type": "Court",
      "Name": "Comanche"
    },
    {
      "taxicode": "9",
      "latitude": 22.579117,
      "longitude": 113.081508,
      "bfa": true,
      "ownership": "Blogpad",
      "type": "Park",
      "Name": "Elka"
    },
    {
      "taxicode": "90755",
      "latitude": -8.727807,
      "longitude": 115.5444231,
      "bfa": false,
      "ownership": "Ainyx",
      "type": "Street",
      "Name": "Hanover"
    },
    {
      "taxicode": "2",
      "latitude": 1.5376351,
      "longitude": 110.321945,
      "bfa": false,
      "ownership": "Fanoodle",
      "type": "Point",
      "Name": "Sheridan"
    },
    {
      "taxicode": "3",
      "latitude": 37.6118995,
      "longitude": -0.9904322,
      "bfa": false,
      "ownership": "Thoughtstorm",
      "type": "Junction",
      "Name": "Roxbury"
    },
    {
      "taxicode": "6",
      "latitude": 49.7624347,
      "longitude": 19.0904515,
      "bfa": false,
      "ownership": "Wikido",
      "type": "Drive",
      "Name": "Farwell"
    },
    {
      "taxicode": "09",
      "latitude": 36.2013157,
      "longitude": 117.6712891,
      "bfa": true,
      "ownership": "Ozu",
      "type": "Street",
      "Name": "Chinook"
    },
    {
      "taxicode": "32135",
      "latitude": 50.0898965,
      "longitude": 19.7935705,
      "bfa": true,
      "ownership": "Ntags",
      "type": "Plaza",
      "Name": "Truax"
    },
    {
      "taxicode": "43",
      "latitude": 30.2382492,
      "longitude": 49.7064548,
      "bfa": true,
      "ownership": "Tagfeed",
      "type": "Terrace",
      "Name": "Sherman"
    },
    {
      "taxicode": "77313",
      "latitude": 43.331546,
      "longitude": 27.5912198,
      "bfa": true,
      "ownership": "Centizu",
      "type": "Avenue",
      "Name": "Randy"
    },
    {
      "taxicode": "590",
      "latitude": 49.6246813,
      "longitude": 19.1833654,
      "bfa": true,
      "ownership": "Skibox",
      "type": "Park",
      "Name": "Manitowish"
    },
    {
      "taxicode": "035",
      "latitude": 49.7774163,
      "longitude": 21.7112659,
      "bfa": true,
      "ownership": "Jaloo",
      "type": "Trail",
      "Name": "Grover"
    },
    {
      "taxicode": "71",
      "latitude": 41.226934,
      "longitude": -8.3815652,
      "bfa": true,
      "ownership": "Dynazzy",
      "type": "Point",
      "Name": "Southridge"
    },
    {
      "taxicode": "22",
      "latitude": 49.9478668,
      "longitude": 19.8866771,
      "bfa": true,
      "ownership": "Feedfish",
      "type": "Avenue",
      "Name": "Morning"
    },
    {
      "taxicode": "99606",
      "latitude": 31.032243,
      "longitude": 121.227747,
      "bfa": true,
      "ownership": "Mynte",
      "type": "Court",
      "Name": "Lakeland"
    },
    {
      "taxicode": "358",
      "latitude": 34.728584,
      "longitude": 112.132488,
      "bfa": true,
      "ownership": "Dabjam",
      "type": "Alley",
      "Name": "Declaration"
    },
    {
      "taxicode": "87180",
      "latitude": 43.1235823,
      "longitude": 132.392159,
      "bfa": false,
      "ownership": "Livetube",
      "type": "Alley",
      "Name": "La Follette"
    },
    {
      "taxicode": "56660",
      "latitude": 9.3711,
      "longitude": 122.8405,
      "bfa": true,
      "ownership": "Zoozzy",
      "type": "Junction",
      "Name": "Sloan"
    },
    {
      "taxicode": "41",
      "latitude": 36.8634887,
      "longitude": 21.9208543,
      "bfa": true,
      "ownership": "Trilith",
      "type": "Street",
      "Name": "Kropf"
    },
    {
      "taxicode": "890",
      "latitude": -12.1695811,
      "longitude": 44.40047,
      "bfa": true,
      "ownership": "Lazz",
      "type": "Avenue",
      "Name": "Corscot"
    },
    {
      "taxicode": "279",
      "latitude": 29.811574,
      "longitude": 112.897464,
      "bfa": true,
      "ownership": "Zoozzy",
      "type": "Pass",
      "Name": "Manley"
    },
    {
      "taxicode": "7",
      "latitude": 55.889724,
      "longitude": 60.7444752,
      "bfa": false,
      "ownership": "Aivee",
      "type": "Avenue",
      "Name": "Spaight"
    },
    {
      "taxicode": "92",
      "latitude": 29.028066,
      "longitude": 106.651361,
      "bfa": true,
      "ownership": "Browsetype",
      "type": "Drive",
      "Name": "Del Mar"
    },
    {
      "taxicode": "05",
      "latitude": -12.7787793,
      "longitude": 45.2237713,
      "bfa": false,
      "ownership": "Twitterlist",
      "type": "Crossing",
      "Name": "Londonderry"
    },
    {
      "taxicode": "6997",
      "latitude": 13.1029,
      "longitude": 123.6999,
      "bfa": true,
      "ownership": "Rooxo",
      "type": "Court",
      "Name": "Nobel"
    },
    {
      "taxicode": "6244",
      "latitude": 50.242123,
      "longitude": 22.4674999,
      "bfa": true,
      "ownership": "Roodel",
      "type": "Pass",
      "Name": "Thompson"
    },
    {
      "taxicode": "04",
      "latitude": -35.1164987,
      "longitude": -71.2829759,
      "bfa": true,
      "ownership": "Quatz",
      "type": "Drive",
      "Name": "Mockingbird"
    },
    {
      "taxicode": "701",
      "latitude": -7.9766381,
      "longitude": -78.8134873,
      "bfa": false,
      "ownership": "Yakijo",
      "type": "Terrace",
      "Name": "Gerald"
    },
    {
      "taxicode": "3176",
      "latitude": 40.2213038,
      "longitude": 44.271441,
      "bfa": false,
      "ownership": "Quinu",
      "type": "Circle",
      "Name": "Brentwood"
    },
    {
      "taxicode": "64066",
      "latitude": 34.26645,
      "longitude": 108.960747,
      "bfa": true,
      "ownership": "Yabox",
      "type": "Way",
      "Name": "Esch"
    },
    {
      "taxicode": "682",
      "latitude": 24.388837,
      "longitude": 107.851428,
      "bfa": false,
      "ownership": "Rhyzio",
      "type": "Junction",
      "Name": "Debra"
    },
    {
      "taxicode": "9",
      "latitude": 15.3972131,
      "longitude": 100.8677256,
      "bfa": true,
      "ownership": "Camimbo",
      "type": "Alley",
      "Name": "Scott"
    },
    {
      "taxicode": "95",
      "latitude": 35.8439572,
      "longitude": 136.1916906,
      "bfa": false,
      "ownership": "Tambee",
      "type": "Court",
      "Name": "Reinke"
    },
    {
      "taxicode": "92",
      "latitude": 14.5353294,
      "longitude": 121.023576,
      "bfa": false,
      "ownership": "Pixonyx",
      "type": "Park",
      "Name": "Walton"
    },
    {
      "taxicode": "114",
      "latitude": 15.43333,
      "longitude": -91.63333,
      "bfa": true,
      "ownership": "Plajo",
      "type": "Avenue",
      "Name": "Novick"
    },
    {
      "taxicode": "1512",
      "latitude": 35.0702051,
      "longitude": 118.2536287,
      "bfa": false,
      "ownership": "Yodo",
      "type": "Parkway",
      "Name": "Buena Vista"
    },
    {
      "taxicode": "8512",
      "latitude": 49.8413005,
      "longitude": 19.7366045,
      "bfa": false,
      "ownership": "Kwideo",
      "type": "Trail",
      "Name": "Dunning"
    },
    {
      "taxicode": "67",
      "latitude": 31.880644,
      "longitude": 109.530416,
      "bfa": false,
      "ownership": "Flipopia",
      "type": "Trail",
      "Name": "Dixon"
    },
    {
      "taxicode": "728",
      "latitude": 38.876483,
      "longitude": 121.549925,
      "bfa": true,
      "ownership": "Reallinks",
      "type": "Road",
      "Name": "Westport"
    },
    {
      "taxicode": "7904",
      "latitude": 29.7905037,
      "longitude": 72.1747127,
      "bfa": false,
      "ownership": "Jayo",
      "type": "Street",
      "Name": "Lotheville"
    },
    {
      "taxicode": "47",
      "latitude": 48.7790663,
      "longitude": 38.564841,
      "bfa": false,
      "ownership": "Lajo",
      "type": "Center",
      "Name": "Toban"
    },
    {
      "taxicode": "35094",
      "latitude": -12.0169195,
      "longitude": -75.2799884,
      "bfa": true,
      "ownership": "Edgewire",
      "type": "Center",
      "Name": "Leroy"
    },
    {
      "taxicode": "67530",
      "latitude": 1.6480399,
      "longitude": 14.5742675,
      "bfa": false,
      "ownership": "Abatz",
      "type": "Park",
      "Name": "Butterfield"
    },
    {
      "taxicode": "037",
      "latitude": 6.3049636,
      "longitude": 7.5626411,
      "bfa": false,
      "ownership": "Devbug",
      "type": "Crossing",
      "Name": "Talmadge"
    },
    {
      "taxicode": "360",
      "latitude": 38.3508588,
      "longitude": 141.4219969,
      "bfa": true,
      "ownership": "Jabberstorm",
      "type": "Way",
      "Name": "Parkside"
    },
    {
      "taxicode": "729",
      "latitude": 15.7147233,
      "longitude": 120.851094,
      "bfa": true,
      "ownership": "Wordware",
      "type": "Way",
      "Name": "Welch"
    },
    {
      "taxicode": "755",
      "latitude": 31.690215,
      "longitude": 113.382458,
      "bfa": true,
      "ownership": "Eire",
      "type": "Pass",
      "Name": "Crest Line"
    },
    {
      "taxicode": "11",
      "latitude": 47.9527415,
      "longitude": 21.6927245,
      "bfa": true,
      "ownership": "Feedfish",
      "type": "Street",
      "Name": "Judy"
    },
    {
      "taxicode": "45355",
      "latitude": 38.5597722,
      "longitude": 68.7870384,
      "bfa": true,
      "ownership": "Oyoba",
      "type": "Drive",
      "Name": "Loftsgordon"
    },
    {
      "taxicode": "1262",
      "latitude": 15.1385669,
      "longitude": -23.2066909,
      "bfa": true,
      "ownership": "Quinu",
      "type": "Drive",
      "Name": "Maywood"
    },
    {
      "taxicode": "134",
      "latitude": 47.6420762,
      "longitude": 40.8758403,
      "bfa": false,
      "ownership": "Avavee",
      "type": "Parkway",
      "Name": "Lakewood"
    },
    {
      "taxicode": "7",
      "latitude": 15.1051826,
      "longitude": -91.929029,
      "bfa": true,
      "ownership": "Blogtags",
      "type": "Street",
      "Name": "Elmside"
    },
    {
      "taxicode": "44",
      "latitude": 19.727097,
      "longitude": 110.319788,
      "bfa": true,
      "ownership": "Tagopia",
      "type": "Court",
      "Name": "Randy"
    },
    {
      "taxicode": "7",
      "latitude": -16.0047799,
      "longitude": -41.2815064,
      "bfa": false,
      "ownership": "Kayveo",
      "type": "Road",
      "Name": "Morning"
    },
    {
      "taxicode": "0",
      "latitude": 44.8445542,
      "longitude": -0.5494198,
      "bfa": false,
      "ownership": "Skiba",
      "type": "Center",
      "Name": "Burning Wood"
    },
    {
      "taxicode": "106",
      "latitude": 48.9014667,
      "longitude": 37.0181437,
      "bfa": true,
      "ownership": "Babbleset",
      "type": "Lane",
      "Name": "Fisk"
    },
    {
      "taxicode": "7",
      "latitude": 10.9089364,
      "longitude": -13.0299331,
      "bfa": false,
      "ownership": "Meezzy",
      "type": "Terrace",
      "Name": "Dahle"
    },
    {
      "taxicode": "7211",
      "latitude": -33.7974423,
      "longitude": 151.2502275,
      "bfa": false,
      "ownership": "LiveZ",
      "type": "Way",
      "Name": "Mitchell"
    },
    {
      "taxicode": "146",
      "latitude": 20.3192475,
      "longitude": 105.7439194,
      "bfa": false,
      "ownership": "Kanoodle",
      "type": "Drive",
      "Name": "Lakeland"
    },
    {
      "taxicode": "56",
      "latitude": -33.5072907,
      "longitude": -57.7992243,
      "bfa": true,
      "ownership": "Topicware",
      "type": "Park",
      "Name": "Dahle"
    },
    {
      "taxicode": "7",
      "latitude": 13.7829673,
      "longitude": 109.2196634,
      "bfa": true,
      "ownership": "Abatz",
      "type": "Drive",
      "Name": "Ryan"
    },
    {
      "taxicode": "6",
      "latitude": 9.979992,
      "longitude": -84.158761,
      "bfa": true,
      "ownership": "Jayo",
      "type": "Center",
      "Name": "Brown"
    },
    {
      "taxicode": "72931",
      "latitude": 46.6698573,
      "longitude": 0.3697581,
      "bfa": true,
      "ownership": "Skipstorm",
      "type": "Court",
      "Name": "Sherman"
    },
    {
      "taxicode": "5280",
      "latitude": 25.5020583,
      "longitude": 117.3701447,
      "bfa": false,
      "ownership": "Jaxnation",
      "type": "Street",
      "Name": "Nancy"
    },
    {
      "taxicode": "61",
      "latitude": 14.9128369,
      "longitude": 104.5422225,
      "bfa": false,
      "ownership": "Rooxo",
      "type": "Plaza",
      "Name": "Nevada"
    },
    {
      "taxicode": "331",
      "latitude": 14.9446785,
      "longitude": -89.9692791,
      "bfa": true,
      "ownership": "Edgetag",
      "type": "Trail",
      "Name": "Toban"
    },
    {
      "taxicode": "1",
      "latitude": -3.7600304,
      "longitude": -38.5349814,
      "bfa": true,
      "ownership": "Trunyx",
      "type": "Court",
      "Name": "Moland"
    },
    {
      "taxicode": "314",
      "latitude": 46.0655001,
      "longitude": 15.1821191,
      "bfa": false,
      "ownership": "Dynava",
      "type": "Avenue",
      "Name": "Acker"
    },
    {
      "taxicode": "884",
      "latitude": -25.877477,
      "longitude": 28.313059,
      "bfa": false,
      "ownership": "Katz",
      "type": "Lane",
      "Name": "Macpherson"
    },
    {
      "taxicode": "519",
      "latitude": 22.299807,
      "longitude": 112.565225,
      "bfa": true,
      "ownership": "Browsedrive",
      "type": "Place",
      "Name": "Roxbury"
    },
    {
      "taxicode": "90",
      "latitude": 35.24417,
      "longitude": 129.21389,
      "bfa": false,
      "ownership": "Shuffledrive",
      "type": "Road",
      "Name": "Petterle"
    },
    {
      "taxicode": "99512",
      "latitude": -15.2159658,
      "longitude": -69.6892254,
      "bfa": false,
      "ownership": "Livepath",
      "type": "Center",
      "Name": "Memorial"
    },
    {
      "taxicode": "4",
      "latitude": -23.5441298,
      "longitude": -46.3660676,
      "bfa": false,
      "ownership": "Flipopia",
      "type": "Crossing",
      "Name": "Merry"
    },
    {
      "taxicode": "5",
      "latitude": -6.5337152,
      "longitude": -76.4943827,
      "bfa": false,
      "ownership": "Izio",
      "type": "Trail",
      "Name": "Lawn"
    },
    {
      "taxicode": "13715",
      "latitude": 31.2840967,
      "longitude": 130.3267278,
      "bfa": true,
      "ownership": "Snaptags",
      "type": "Terrace",
      "Name": "Twin Pines"
    },
    {
      "taxicode": "7596",
      "latitude": 53.0418691,
      "longitude": 16.4616756,
      "bfa": true,
      "ownership": "Fanoodle",
      "type": "Lane",
      "Name": "Badeau"
    },
    {
      "taxicode": "05",
      "latitude": 36.34931,
      "longitude": 126.59772,
      "bfa": true,
      "ownership": "Buzzdog",
      "type": "Circle",
      "Name": "Goodland"
    },
    {
      "taxicode": "54917",
      "latitude": 50.0330752,
      "longitude": 16.7260055,
      "bfa": true,
      "ownership": "Agivu",
      "type": "Park",
      "Name": "Vidon"
    },
    {
      "taxicode": "5808",
      "latitude": 1.2255938,
      "longitude": -77.6611917,
      "bfa": true,
      "ownership": "Shufflebeat",
      "type": "Pass",
      "Name": "Monica"
    },
    {
      "taxicode": "201",
      "latitude": 30.978349,
      "longitude": 107.980213,
      "bfa": true,
      "ownership": "Photospace",
      "type": "Park",
      "Name": "Emmet"
    },
    {
      "taxicode": "746",
      "latitude": 29.655143,
      "longitude": 121.406995,
      "bfa": false,
      "ownership": "Miboo",
      "type": "Avenue",
      "Name": "Pearson"
    },
    {
      "taxicode": "1908",
      "latitude": 48.9167257,
      "longitude": 2.3179316,
      "bfa": true,
      "ownership": "Yata",
      "type": "Park",
      "Name": "Moulton"
    },
    {
      "taxicode": "3059",
      "latitude": 38.416663,
      "longitude": 112.734174,
      "bfa": true,
      "ownership": "BlogXS",
      "type": "Center",
      "Name": "Starling"
    },
    {
      "taxicode": "71569",
      "latitude": 10.122667,
      "longitude": 123.540401,
      "bfa": false,
      "ownership": "Midel",
      "type": "Place",
      "Name": "Sutteridge"
    },
    {
      "taxicode": "3",
      "latitude": 14.6099284,
      "longitude": 121.0348405,
      "bfa": false,
      "ownership": "Vidoo",
      "type": "Trail",
      "Name": "Blaine"
    },
    {
      "taxicode": "0",
      "latitude": 29.606391,
      "longitude": 112.320413,
      "bfa": false,
      "ownership": "Skyvu",
      "type": "Circle",
      "Name": "Messerschmidt"
    },
    {
      "taxicode": "97",
      "latitude": 36.7027082,
      "longitude": 67.7079491,
      "bfa": true,
      "ownership": "Brainverse",
      "type": "Lane",
      "Name": "Dunning"
    },
    {
      "taxicode": "2724",
      "latitude": 16.2123852,
      "longitude": 100.4198876,
      "bfa": true,
      "ownership": "Skinder",
      "type": "Way",
      "Name": "Northwestern"
    },
    {
      "taxicode": "7162",
      "latitude": 49.7266083,
      "longitude": 19.8365034,
      "bfa": true,
      "ownership": "Fliptune",
      "type": "Hill",
      "Name": "Victoria"
    },
    {
      "taxicode": "196",
      "latitude": 40.024639,
      "longitude": 122.711528,
      "bfa": true,
      "ownership": "Thoughtmix",
      "type": "Lane",
      "Name": "Goodland"
    },
    {
      "taxicode": "1",
      "latitude": -7.9576278,
      "longitude": 111.3561103,
      "bfa": true,
      "ownership": "Skipstorm",
      "type": "Junction",
      "Name": "Green Ridge"
    },
    {
      "taxicode": "2",
      "latitude": -16.8054223,
      "longitude": 26.9970153,
      "bfa": true,
      "ownership": "Latz",
      "type": "Avenue",
      "Name": "4th"
    },
    {
      "taxicode": "0684",
      "latitude": -4.5612094,
      "longitude": -37.7688612,
      "bfa": false,
      "ownership": "Cogidoo",
      "type": "Terrace",
      "Name": "Carioca"
    },
    {
      "taxicode": "0350",
      "latitude": 14.8921247,
      "longitude": -87.1711922,
      "bfa": true,
      "ownership": "Janyx",
      "type": "Lane",
      "Name": "Golden Leaf"
    },
    {
      "taxicode": "36",
      "latitude": 37.87059,
      "longitude": 112.548879,
      "bfa": true,
      "ownership": "Ozu",
      "type": "Alley",
      "Name": "Nova"
    },
    {
      "taxicode": "88708",
      "latitude": 33.0517157,
      "longitude": 68.0149609,
      "bfa": true,
      "ownership": "Youspan",
      "type": "Road",
      "Name": "Springview"
    },
    {
      "taxicode": "38",
      "latitude": -0.4960508,
      "longitude": 101.866362,
      "bfa": true,
      "ownership": "Gabspot",
      "type": "Avenue",
      "Name": "Darwin"
    },
    {
      "taxicode": "171",
      "latitude": 0.9931336,
      "longitude": 9.5770844,
      "bfa": true,
      "ownership": "Topiclounge",
      "type": "Place",
      "Name": "Mariners Cove"
    },
    {
      "taxicode": "4444",
      "latitude": -6.6825,
      "longitude": 105.8573,
      "bfa": true,
      "ownership": "Tambee",
      "type": "Circle",
      "Name": "Macpherson"
    },
    {
      "taxicode": "5",
      "latitude": 42.629452,
      "longitude": 120.639361,
      "bfa": true,
      "ownership": "Kanoodle",
      "type": "Hill",
      "Name": "Sommers"
    },
    {
      "taxicode": "7268",
      "latitude": 38.9771158,
      "longitude": 117.7098707,
      "bfa": false,
      "ownership": "Jamia",
      "type": "Pass",
      "Name": "Kinsman"
    },
    {
      "taxicode": "0",
      "latitude": -7.150975,
      "longitude": 110.1402594,
      "bfa": true,
      "ownership": "Yacero",
      "type": "Crossing",
      "Name": "Hovde"
    },
    {
      "taxicode": "6",
      "latitude": 49.6769375,
      "longitude": 6.1338438,
      "bfa": false,
      "ownership": "Topicblab",
      "type": "Trail",
      "Name": "Rowland"
    },
    {
      "taxicode": "1",
      "latitude": -32.93645,
      "longitude": -68.8733205,
      "bfa": false,
      "ownership": "Linktype",
      "type": "Crossing",
      "Name": "Canary"
    },
    {
      "taxicode": "77",
      "latitude": 48.8428574,
      "longitude": -123.7044012,
      "bfa": false,
      "ownership": "JumpXS",
      "type": "Road",
      "Name": "Lien"
    },
    {
      "taxicode": "13",
      "latitude": -34.5865835,
      "longitude": -60.9326374,
      "bfa": false,
      "ownership": "Jabbersphere",
      "type": "Court",
      "Name": "Muir"
    },
    {
      "taxicode": "24088",
      "latitude": 40.1643574,
      "longitude": 21.8202873,
      "bfa": false,
      "ownership": "Feednation",
      "type": "Place",
      "Name": "Saint Paul"
    },
    {
      "taxicode": "96328",
      "latitude": 33.0726276,
      "longitude": 131.8737341,
      "bfa": false,
      "ownership": "Dynabox",
      "type": "Alley",
      "Name": "Mitchell"
    },
    {
      "taxicode": "16834",
      "latitude": -2.0908079,
      "longitude": 111.2606554,
      "bfa": true,
      "ownership": "Babblestorm",
      "type": "Pass",
      "Name": "Westerfield"
    },
    {
      "taxicode": "34570",
      "latitude": 20.1453986,
      "longitude": -77.4300357,
      "bfa": true,
      "ownership": "Vinder",
      "type": "Center",
      "Name": "Dennis"
    },
    {
      "taxicode": "65798",
      "latitude": 44.904219,
      "longitude": 78.2166516,
      "bfa": false,
      "ownership": "Pixoboo",
      "type": "Lane",
      "Name": "Carberry"
    },
    {
      "taxicode": "7",
      "latitude": 50.0028883,
      "longitude": 21.8964008,
      "bfa": false,
      "ownership": "Avamm",
      "type": "Parkway",
      "Name": "Heath"
    },
    {
      "taxicode": "13",
      "latitude": 50.4127137,
      "longitude": 22.7432687,
      "bfa": false,
      "ownership": "Bubbletube",
      "type": "Drive",
      "Name": "Cambridge"
    },
    {
      "taxicode": "7666",
      "latitude": 8.7814708,
      "longitude": 167.7373396,
      "bfa": false,
      "ownership": "Skiptube",
      "type": "Junction",
      "Name": "Jenna"
    },
    {
      "taxicode": "52920",
      "latitude": 56.5953599,
      "longitude": 24.1989562,
      "bfa": false,
      "ownership": "Podcat",
      "type": "Way",
      "Name": "Paget"
    },
    {
      "taxicode": "2",
      "latitude": -8.197451,
      "longitude": 112.6079459,
      "bfa": false,
      "ownership": "Teklist",
      "type": "Place",
      "Name": "Manufacturers"
    },
    {
      "taxicode": "79880",
      "latitude": 17.18333,
      "longitude": 120.43333,
      "bfa": false,
      "ownership": "Jaxnation",
      "type": "Plaza",
      "Name": "Mccormick"
    },
    {
      "taxicode": "0",
      "latitude": 34.8856144,
      "longitude": 38.8754323,
      "bfa": false,
      "ownership": "Fatz",
      "type": "Court",
      "Name": "Nelson"
    },
    {
      "taxicode": "51616",
      "latitude": 30.946249,
      "longitude": 118.756589,
      "bfa": false,
      "ownership": "Agivu",
      "type": "Street",
      "Name": "Jenna"
    },
    {
      "taxicode": "24500",
      "latitude": -23.3233727,
      "longitude": -46.7294577,
      "bfa": true,
      "ownership": "Meetz",
      "type": "Terrace",
      "Name": "Warbler"
    },
    {
      "taxicode": "2492",
      "latitude": 13.7506463,
      "longitude": 100.5326139,
      "bfa": false,
      "ownership": "Trudoo",
      "type": "Drive",
      "Name": "Park Meadow"
    },
    {
      "taxicode": "2974",
      "latitude": 51.55683,
      "longitude": 105.1262,
      "bfa": true,
      "ownership": "Mita",
      "type": "Plaza",
      "Name": "Village"
    },
    {
      "taxicode": "84811",
      "latitude": -26.8552666,
      "longitude": -55.541359,
      "bfa": false,
      "ownership": "Yacero",
      "type": "Crossing",
      "Name": "Anhalt"
    },
    {
      "taxicode": "4",
      "latitude": 39.38316,
      "longitude": -8.2407873,
      "bfa": true,
      "ownership": "Lazz",
      "type": "Street",
      "Name": "Sutherland"
    },
    {
      "taxicode": "8",
      "latitude": 37.9414132,
      "longitude": -77.3472943,
      "bfa": true,
      "ownership": "Mycat",
      "type": "Street",
      "Name": "Manley"
    },
    {
      "taxicode": "6",
      "latitude": -12.95689,
      "longitude": -74.023193,
      "bfa": false,
      "ownership": "Meezzy",
      "type": "Way",
      "Name": "3rd"
    },
    {
      "taxicode": "3400",
      "latitude": 41.6427177,
      "longitude": -8.4353332,
      "bfa": false,
      "ownership": "Cogibox",
      "type": "Center",
      "Name": "Bashford"
    },
    {
      "taxicode": "11978",
      "latitude": 15.6682977,
      "longitude": 120.5003747,
      "bfa": true,
      "ownership": "Centizu",
      "type": "Center",
      "Name": "Butternut"
    },
    {
      "taxicode": "1",
      "latitude": 38.3192083,
      "longitude": 69.046356,
      "bfa": false,
      "ownership": "Realcube",
      "type": "Way",
      "Name": "Redwing"
    },
    {
      "taxicode": "2265",
      "latitude": 20.5476734,
      "longitude": 105.9347384,
      "bfa": false,
      "ownership": "Abata",
      "type": "Hill",
      "Name": "Logan"
    },
    {
      "taxicode": "117",
      "latitude": -7.5718057,
      "longitude": 110.8381555,
      "bfa": false,
      "ownership": "Feedbug",
      "type": "Park",
      "Name": "Knutson"
    },
    {
      "taxicode": "4737",
      "latitude": -36.8201352,
      "longitude": -73.0443904,
      "bfa": false,
      "ownership": "Trupe",
      "type": "Pass",
      "Name": "Bunting"
    },
    {
      "taxicode": "63622",
      "latitude": -9.7464338,
      "longitude": 124.4309165,
      "bfa": false,
      "ownership": "Skinder",
      "type": "Lane",
      "Name": "Merrick"
    },
    {
      "taxicode": "513",
      "latitude": 22.386514,
      "longitude": 57.5249708,
      "bfa": true,
      "ownership": "Voolia",
      "type": "Way",
      "Name": "Pond"
    },
    {
      "taxicode": "377",
      "latitude": 45.813177,
      "longitude": 9.2292909,
      "bfa": false,
      "ownership": "Gabspot",
      "type": "Place",
      "Name": "Meadow Vale"
    },
    {
      "taxicode": "7",
      "latitude": -32.8803027,
      "longitude": -71.2497156,
      "bfa": true,
      "ownership": "Jabbersphere",
      "type": "Court",
      "Name": "Lerdahl"
    },
    {
      "taxicode": "51370",
      "latitude": 7.20312,
      "longitude": 124.796217,
      "bfa": true,
      "ownership": "Innotype",
      "type": "Plaza",
      "Name": "Anniversary"
    },
    {
      "taxicode": "700",
      "latitude": -2.6896767,
      "longitude": 141.2998457,
      "bfa": false,
      "ownership": "Skiptube",
      "type": "Street",
      "Name": "Acker"
    },
    {
      "taxicode": "683",
      "latitude": 19.238934,
      "longitude": 108.957345,
      "bfa": true,
      "ownership": "Jabberstorm",
      "type": "Center",
      "Name": "Dwight"
    },
    {
      "taxicode": "4",
      "latitude": 18.2540705,
      "longitude": -70.3600393,
      "bfa": true,
      "ownership": "Skiba",
      "type": "Lane",
      "Name": "Fulton"
    },
    {
      "taxicode": "1",
      "latitude": 37.8589492,
      "longitude": -25.7944989,
      "bfa": true,
      "ownership": "Flipbug",
      "type": "Alley",
      "Name": "Clarendon"
    },
    {
      "taxicode": "92",
      "latitude": 10.4009358,
      "longitude": 106.22868,
      "bfa": false,
      "ownership": "Edgeblab",
      "type": "Place",
      "Name": "Dottie"
    },
    {
      "taxicode": "3820",
      "latitude": 18.50831,
      "longitude": 109.277378,
      "bfa": true,
      "ownership": "Eabox",
      "type": "Place",
      "Name": "Saint Paul"
    },
    {
      "taxicode": "6327",
      "latitude": 48.8708001,
      "longitude": 2.166848,
      "bfa": false,
      "ownership": "Vitz",
      "type": "Terrace",
      "Name": "School"
    },
    {
      "taxicode": "03782",
      "latitude": 47.48325,
      "longitude": -55.79833,
      "bfa": true,
      "ownership": "Meejo",
      "type": "Plaza",
      "Name": "Sugar"
    },
    {
      "taxicode": "73",
      "latitude": -8.3899579,
      "longitude": 124.6687109,
      "bfa": true,
      "ownership": "Photobug",
      "type": "Way",
      "Name": "Dryden"
    },
    {
      "taxicode": "6782",
      "latitude": 8.919623,
      "longitude": 124.783907,
      "bfa": false,
      "ownership": "Devify",
      "type": "Avenue",
      "Name": "Kedzie"
    },
    {
      "taxicode": "495",
      "latitude": 49.7058855,
      "longitude": 6.3726286,
      "bfa": true,
      "ownership": "Yata",
      "type": "Circle",
      "Name": "Sherman"
    },
    {
      "taxicode": "716",
      "latitude": 52.4782901,
      "longitude": 21.631951,
      "bfa": true,
      "ownership": "Flipbug",
      "type": "Way",
      "Name": "Express"
    },
    {
      "taxicode": "9",
      "latitude": 39.360247,
      "longitude": 114.694283,
      "bfa": true,
      "ownership": "Jaxnation",
      "type": "Hill",
      "Name": "Aberg"
    },
    {
      "taxicode": "08",
      "latitude": -9.4449608,
      "longitude": 119.2311118,
      "bfa": true,
      "ownership": "Kazio",
      "type": "Alley",
      "Name": "Scott"
    },
    {
      "taxicode": "1",
      "latitude": -28.2963334,
      "longitude": -52.793776,
      "bfa": true,
      "ownership": "Divanoodle",
      "type": "Circle",
      "Name": "Kim"
    },
    {
      "taxicode": "11",
      "latitude": 27.677091,
      "longitude": 100.771419,
      "bfa": true,
      "ownership": "Ntags",
      "type": "Court",
      "Name": "Oakridge"
    },
    {
      "taxicode": "2831",
      "latitude": 29.9588757,
      "longitude": 30.9006905,
      "bfa": true,
      "ownership": "Buzzdog",
      "type": "Pass",
      "Name": "Brentwood"
    },
    {
      "taxicode": "004",
      "latitude": 20.5599652,
      "longitude": -76.9095647,
      "bfa": true,
      "ownership": "Tagopia",
      "type": "Hill",
      "Name": "Kropf"
    },
    {
      "taxicode": "0",
      "latitude": 27.928835,
      "longitude": 101.280205,
      "bfa": false,
      "ownership": "Jayo",
      "type": "Avenue",
      "Name": "Armistice"
    },
    {
      "taxicode": "36",
      "latitude": -27.946449,
      "longitude": -52.9164069,
      "bfa": false,
      "ownership": "Meedoo",
      "type": "Parkway",
      "Name": "Clarendon"
    },
    {
      "taxicode": "75",
      "latitude": 29.1203,
      "longitude": 107.415889,
      "bfa": false,
      "ownership": "Riffwire",
      "type": "Court",
      "Name": "Rigney"
    },
    {
      "taxicode": "1048",
      "latitude": -7.5450262,
      "longitude": 111.6556388,
      "bfa": true,
      "ownership": "Gabcube",
      "type": "Junction",
      "Name": "Bunker Hill"
    },
    {
      "taxicode": "31",
      "latitude": 59.2074845,
      "longitude": 37.1181564,
      "bfa": false,
      "ownership": "Youbridge",
      "type": "Hill",
      "Name": "Oak"
    },
    {
      "taxicode": "6106",
      "latitude": 32.477977,
      "longitude": 35.253787,
      "bfa": false,
      "ownership": "Realbridge",
      "type": "Junction",
      "Name": "Jackson"
    },
    {
      "taxicode": "6",
      "latitude": 11.25111,
      "longitude": 125.00639,
      "bfa": false,
      "ownership": "Skidoo",
      "type": "Way",
      "Name": "Longview"
    },
    {
      "taxicode": "765",
      "latitude": 5.329576,
      "longitude": 103.1369108,
      "bfa": false,
      "ownership": "Feedspan",
      "type": "Way",
      "Name": "Oakridge"
    },
    {
      "taxicode": "51",
      "latitude": 47.1036608,
      "longitude": 0.3010983,
      "bfa": true,
      "ownership": "Photobug",
      "type": "Crossing",
      "Name": "Forest"
    },
    {
      "taxicode": "4447",
      "latitude": 10.237,
      "longitude": 122.8993,
      "bfa": true,
      "ownership": "Divavu",
      "type": "Avenue",
      "Name": "Valley Edge"
    },
    {
      "taxicode": "609",
      "latitude": -7.22698,
      "longitude": -39.297682,
      "bfa": false,
      "ownership": "Mydo",
      "type": "Point",
      "Name": "Arizona"
    },
    {
      "taxicode": "6874",
      "latitude": 22.6659838,
      "longitude": 104.262851,
      "bfa": false,
      "ownership": "Rhybox",
      "type": "Crossing",
      "Name": "Summit"
    },
    {
      "taxicode": "72",
      "latitude": 18.0089836,
      "longitude": -76.782702,
      "bfa": false,
      "ownership": "Gigazoom",
      "type": "Lane",
      "Name": "Michigan"
    },
    {
      "taxicode": "01196",
      "latitude": 40.954617,
      "longitude": -8.481788,
      "bfa": true,
      "ownership": "Browsecat",
      "type": "Junction",
      "Name": "Doe Crossing"
    },
    {
      "taxicode": "9872",
      "latitude": 13.4211757,
      "longitude": 8.4760154,
      "bfa": true,
      "ownership": "Tazz",
      "type": "Crossing",
      "Name": "Lotheville"
    },
    {
      "taxicode": "21",
      "latitude": -8.4627496,
      "longitude": -35.0828588,
      "bfa": false,
      "ownership": "Realmix",
      "type": "Place",
      "Name": "Center"
    },
    {
      "taxicode": "9469",
      "latitude": 41.1850062,
      "longitude": -8.2995005,
      "bfa": false,
      "ownership": "Wordify",
      "type": "Alley",
      "Name": "Schmedeman"
    },
    {
      "taxicode": "61",
      "latitude": -8.6282191,
      "longitude": 116.4636472,
      "bfa": true,
      "ownership": "Livepath",
      "type": "Lane",
      "Name": "Dorton"
    },
    {
      "taxicode": "272",
      "latitude": 39.3046388,
      "longitude": 23.2207655,
      "bfa": true,
      "ownership": "Kazio",
      "type": "Plaza",
      "Name": "Spaight"
    },
    {
      "taxicode": "2",
      "latitude": 50.3473476,
      "longitude": 15.9014886,
      "bfa": true,
      "ownership": "Quatz",
      "type": "Place",
      "Name": "Magdeline"
    },
    {
      "taxicode": "441",
      "latitude": 1.1016277,
      "longitude": 33.9303991,
      "bfa": false,
      "ownership": "Topicshots",
      "type": "Pass",
      "Name": "Golden Leaf"
    },
    {
      "taxicode": "41",
      "latitude": 51.38494,
      "longitude": 30.19978,
      "bfa": true,
      "ownership": "Twimbo",
      "type": "Junction",
      "Name": "Heffernan"
    },
    {
      "taxicode": "73",
      "latitude": 37.0510081,
      "longitude": 21.7155204,
      "bfa": true,
      "ownership": "Eimbee",
      "type": "Avenue",
      "Name": "Vernon"
    },
    {
      "taxicode": "69",
      "latitude": 52.8801,
      "longitude": 40.5526,
      "bfa": false,
      "ownership": "Quinu",
      "type": "Lane",
      "Name": "Golf View"
    },
    {
      "taxicode": "6",
      "latitude": 37.970285,
      "longitude": -1.1424989,
      "bfa": false,
      "ownership": "Realcube",
      "type": "Pass",
      "Name": "Pleasure"
    },
    {
      "taxicode": "1392",
      "latitude": 24.5306908,
      "longitude": 118.109506,
      "bfa": true,
      "ownership": "Skalith",
      "type": "Avenue",
      "Name": "Burning Wood"
    },
    {
      "taxicode": "2",
      "latitude": 58.3669548,
      "longitude": 45.5416034,
      "bfa": false,
      "ownership": "Shuffledrive",
      "type": "Street",
      "Name": "Sutherland"
    },
    {
      "taxicode": "5",
      "latitude": -7.382645,
      "longitude": 107.7458559,
      "bfa": false,
      "ownership": "Livetube",
      "type": "Parkway",
      "Name": "Fuller"
    },
    {
      "taxicode": "4889",
      "latitude": -27.2000865,
      "longitude": -54.9815915,
      "bfa": false,
      "ownership": "Yombu",
      "type": "Avenue",
      "Name": "Dunning"
    },
    {
      "taxicode": "711",
      "latitude": 50.2242211,
      "longitude": 18.7343606,
      "bfa": false,
      "ownership": "Ainyx",
      "type": "Parkway",
      "Name": "Elka"
    },
    {
      "taxicode": "7",
      "latitude": 46.8435126,
      "longitude": 74.9809805,
      "bfa": true,
      "ownership": "Roombo",
      "type": "Road",
      "Name": "Paget"
    },
    {
      "taxicode": "87972",
      "latitude": 58.4055961,
      "longitude": 15.7403531,
      "bfa": true,
      "ownership": "Youspan",
      "type": "Street",
      "Name": "Crescent Oaks"
    },
    {
      "taxicode": "198",
      "latitude": 41.5706511,
      "longitude": -8.3577961,
      "bfa": false,
      "ownership": "Oyondu",
      "type": "Park",
      "Name": "Johnson"
    },
    {
      "taxicode": "65",
      "latitude": 30.5859716,
      "longitude": 114.2689545,
      "bfa": false,
      "ownership": "Feedfish",
      "type": "Trail",
      "Name": "Donald"
    },
    {
      "taxicode": "952",
      "latitude": 49.893413,
      "longitude": 16.028504,
      "bfa": true,
      "ownership": "Blogspan",
      "type": "Crossing",
      "Name": "Briar Crest"
    },
    {
      "taxicode": "34119",
      "latitude": -7.347756,
      "longitude": 108.8818859,
      "bfa": true,
      "ownership": "Minyx",
      "type": "Park",
      "Name": "Acker"
    },
    {
      "taxicode": "9",
      "latitude": 54.7624683,
      "longitude": 48.6849571,
      "bfa": true,
      "ownership": "Agimba",
      "type": "Center",
      "Name": "Mosinee"
    },
    {
      "taxicode": "401",
      "latitude": -19.3882364,
      "longitude": -42.5117238,
      "bfa": false,
      "ownership": "Twiyo",
      "type": "Circle",
      "Name": "Waubesa"
    },
    {
      "taxicode": "93817",
      "latitude": -8.7368981,
      "longitude": 24.9872821,
      "bfa": true,
      "ownership": "Rhyzio",
      "type": "Drive",
      "Name": "Daystar"
    },
    {
      "taxicode": "47",
      "latitude": 49.4129509,
      "longitude": 75.4772753,
      "bfa": true,
      "ownership": "Shuffletag",
      "type": "Street",
      "Name": "Bayside"
    },
    {
      "taxicode": "622",
      "latitude": 6.848589,
      "longitude": 101.4112049,
      "bfa": false,
      "ownership": "Minyx",
      "type": "Hill",
      "Name": "Sunnyside"
    },
    {
      "taxicode": "84",
      "latitude": 23.63841,
      "longitude": 115.182134,
      "bfa": false,
      "ownership": "Muxo",
      "type": "Parkway",
      "Name": "Kipling"
    },
    {
      "taxicode": "4",
      "latitude": 39.068035,
      "longitude": 20.6971047,
      "bfa": false,
      "ownership": "Jaxnation",
      "type": "Way",
      "Name": "Cardinal"
    },
    {
      "taxicode": "0600",
      "latitude": 54.87559,
      "longitude": 36.384275,
      "bfa": true,
      "ownership": "Flashpoint",
      "type": "Junction",
      "Name": "Clyde Gallagher"
    },
    {
      "taxicode": "33918",
      "latitude": 16.720024,
      "longitude": 103.5668302,
      "bfa": true,
      "ownership": "Eire",
      "type": "Hill",
      "Name": "Sachs"
    },
    {
      "taxicode": "7451",
      "latitude": 47.666307,
      "longitude": -2.7887335,
      "bfa": true,
      "ownership": "Jaxbean",
      "type": "Hill",
      "Name": "Beilfuss"
    },
    {
      "taxicode": "10910",
      "latitude": 48.783333,
      "longitude": 132.933333,
      "bfa": false,
      "ownership": "Roombo",
      "type": "Crossing",
      "Name": "Sachs"
    },
    {
      "taxicode": "6",
      "latitude": 20.9959819,
      "longitude": 105.8097244,
      "bfa": true,
      "ownership": "Vinte",
      "type": "Point",
      "Name": "Del Sol"
    },
    {
      "taxicode": "82",
      "latitude": -8.2322924,
      "longitude": 124.6806813,
      "bfa": true,
      "ownership": "Latz",
      "type": "Place",
      "Name": "Schiller"
    },
    {
      "taxicode": "0845",
      "latitude": 55.5772494,
      "longitude": 39.526478,
      "bfa": false,
      "ownership": "Myworks",
      "type": "Street",
      "Name": "Londonderry"
    },
    {
      "taxicode": "77764",
      "latitude": 40.0823213,
      "longitude": 124.4489192,
      "bfa": false,
      "ownership": "Gabtune",
      "type": "Trail",
      "Name": "Cambridge"
    },
    {
      "taxicode": "807",
      "latitude": 59.3938804,
      "longitude": 15.8607653,
      "bfa": false,
      "ownership": "Eadel",
      "type": "Trail",
      "Name": "Southridge"
    },
    {
      "taxicode": "58201",
      "latitude": -20.3761919,
      "longitude": 57.5660161,
      "bfa": false,
      "ownership": "Agimba",
      "type": "Court",
      "Name": "Morrow"
    },
    {
      "taxicode": "91",
      "latitude": 6.4610857,
      "longitude": -2.3172324,
      "bfa": true,
      "ownership": "Skinix",
      "type": "Terrace",
      "Name": "Montana"
    },
    {
      "taxicode": "653",
      "latitude": 49.7192421,
      "longitude": 18.591659,
      "bfa": true,
      "ownership": "Skynoodle",
      "type": "Plaza",
      "Name": "Cambridge"
    },
    {
      "taxicode": "9383",
      "latitude": 15.6122706,
      "longitude": -86.0784459,
      "bfa": true,
      "ownership": "Brainlounge",
      "type": "Junction",
      "Name": "Kim"
    },
    {
      "taxicode": "9295",
      "latitude": -41.293391,
      "longitude": 174.782036,
      "bfa": true,
      "ownership": "Buzzster",
      "type": "Park",
      "Name": "Northland"
    },
    {
      "taxicode": "09",
      "latitude": 37.691429,
      "longitude": 118.122323,
      "bfa": true,
      "ownership": "Centidel",
      "type": "Point",
      "Name": "Knutson"
    },
    {
      "taxicode": "5591",
      "latitude": 40.9463093,
      "longitude": 68.7512681,
      "bfa": false,
      "ownership": "Dabshots",
      "type": "Road",
      "Name": "Springview"
    },
    {
      "taxicode": "578",
      "latitude": 34.0181246,
      "longitude": -5.0078451,
      "bfa": false,
      "ownership": "Fanoodle",
      "type": "Lane",
      "Name": "Hansons"
    },
    {
      "taxicode": "583",
      "latitude": 11.5471456,
      "longitude": 4.9656113,
      "bfa": false,
      "ownership": "Thoughtworks",
      "type": "Lane",
      "Name": "Golf Course"
    },
    {
      "taxicode": "851",
      "latitude": 4.6096768,
      "longitude": 101.1064003,
      "bfa": false,
      "ownership": "Jaxnation",
      "type": "Parkway",
      "Name": "Almo"
    },
    {
      "taxicode": "7469",
      "latitude": 49.9742851,
      "longitude": 18.2638644,
      "bfa": false,
      "ownership": "Thoughtsphere",
      "type": "Lane",
      "Name": "Florence"
    },
    {
      "taxicode": "95",
      "latitude": 37.347409,
      "longitude": 115.965874,
      "bfa": true,
      "ownership": "Yodo",
      "type": "Trail",
      "Name": "Park Meadow"
    },
    {
      "taxicode": "9",
      "latitude": 54.7047674,
      "longitude": 73.0410443,
      "bfa": false,
      "ownership": "Flashpoint",
      "type": "Parkway",
      "Name": "American"
    },
    {
      "taxicode": "7155",
      "latitude": 37.1120141,
      "longitude": -93.3086778,
      "bfa": false,
      "ownership": "Skalith",
      "type": "Place",
      "Name": "Summer Ridge"
    },
    {
      "taxicode": "39",
      "latitude": 39.3240601,
      "longitude": -77.3485436,
      "bfa": false,
      "ownership": "Dabjam",
      "type": "Pass",
      "Name": "Dorton"
    },
    {
      "taxicode": "101",
      "latitude": -6.9695439,
      "longitude": 112.5155694,
      "bfa": false,
      "ownership": "Skinte",
      "type": "Junction",
      "Name": "Pepper Wood"
    },
    {
      "taxicode": "9484",
      "latitude": 45.3652354,
      "longitude": 14.3926584,
      "bfa": true,
      "ownership": "Miboo",
      "type": "Hill",
      "Name": "Superior"
    },
    {
      "taxicode": "873",
      "latitude": -6.3413734,
      "longitude": 106.5495683,
      "bfa": false,
      "ownership": "Fanoodle",
      "type": "Terrace",
      "Name": "Brentwood"
    },
    {
      "taxicode": "3",
      "latitude": -6.9219286,
      "longitude": 112.1579249,
      "bfa": true,
      "ownership": "Nlounge",
      "type": "Point",
      "Name": "Moland"
    },
    {
      "taxicode": "7082",
      "latitude": 22.938069,
      "longitude": 112.987173,
      "bfa": false,
      "ownership": "Flashpoint",
      "type": "Plaza",
      "Name": "Stoughton"
    },
    {
      "taxicode": "7",
      "latitude": 44.166512,
      "longitude": 79.999974,
      "bfa": false,
      "ownership": "Devpulse",
      "type": "Circle",
      "Name": "Fordem"
    },
    {
      "taxicode": "5",
      "latitude": 4.8980694,
      "longitude": 119.8492473,
      "bfa": true,
      "ownership": "Wikibox",
      "type": "Way",
      "Name": "Hoard"
    },
    {
      "taxicode": "73",
      "latitude": 40.5871242,
      "longitude": 43.8677691,
      "bfa": false,
      "ownership": "Yodel",
      "type": "Crossing",
      "Name": "Express"
    },
    {
      "taxicode": "926",
      "latitude": -13.69361,
      "longitude": -73.75861,
      "bfa": false,
      "ownership": "Trudeo",
      "type": "Plaza",
      "Name": "Havey"
    },
    {
      "taxicode": "7594",
      "latitude": 30.594336,
      "longitude": 105.236903,
      "bfa": false,
      "ownership": "Linkbridge",
      "type": "Road",
      "Name": "Becker"
    },
    {
      "taxicode": "57",
      "latitude": 48.9172739,
      "longitude": 31.719254,
      "bfa": true,
      "ownership": "Zava",
      "type": "Avenue",
      "Name": "Lighthouse Bay"
    },
    {
      "taxicode": "568",
      "latitude": 57.2033415,
      "longitude": 14.0338655,
      "bfa": false,
      "ownership": "Wikivu",
      "type": "Court",
      "Name": "Buhler"
    },
    {
      "taxicode": "95",
      "latitude": 24.0441592,
      "longitude": 90.9856518,
      "bfa": false,
      "ownership": "Babbleopia",
      "type": "Court",
      "Name": "Division"
    },
    {
      "taxicode": "912",
      "latitude": 0.3642599,
      "longitude": 108.954903,
      "bfa": true,
      "ownership": "Bubblebox",
      "type": "Parkway",
      "Name": "2nd"
    },
    {
      "taxicode": "71510",
      "latitude": 22.615932,
      "longitude": 112.634486,
      "bfa": false,
      "ownership": "Blognation",
      "type": "Alley",
      "Name": "Farragut"
    },
    {
      "taxicode": "72449",
      "latitude": -8.053523,
      "longitude": 111.8598395,
      "bfa": false,
      "ownership": "Brainverse",
      "type": "Hill",
      "Name": "Sachtjen"
    },
    {
      "taxicode": "57",
      "latitude": 24.44218,
      "longitude": 114.938684,
      "bfa": true,
      "ownership": "Skilith",
      "type": "Road",
      "Name": "American"
    },
    {
      "taxicode": "9207",
      "latitude": 8.5703071,
      "longitude": 150.4189148,
      "bfa": true,
      "ownership": "Wordify",
      "type": "Park",
      "Name": "Sunfield"
    },
    {
      "taxicode": "1435",
      "latitude": -6.6913793,
      "longitude": 111.0892601,
      "bfa": true,
      "ownership": "DabZ",
      "type": "Parkway",
      "Name": "Hoffman"
    },
    {
      "taxicode": "947",
      "latitude": 38.4224562,
      "longitude": 48.8687149,
      "bfa": false,
      "ownership": "Yodel",
      "type": "Pass",
      "Name": "Merrick"
    },
    {
      "taxicode": "3952",
      "latitude": 24.546876,
      "longitude": 107.04219,
      "bfa": true,
      "ownership": "Rhynoodle",
      "type": "Hill",
      "Name": "Golden Leaf"
    },
    {
      "taxicode": "27856",
      "latitude": -17.4328946,
      "longitude": -41.9989718,
      "bfa": true,
      "ownership": "Topiclounge",
      "type": "Street",
      "Name": "Golf"
    },
    {
      "taxicode": "2",
      "latitude": 68.1416652,
      "longitude": 33.3096133,
      "bfa": false,
      "ownership": "Jabbersphere",
      "type": "Hill",
      "Name": "Maryland"
    },
    {
      "taxicode": "2",
      "latitude": 48.8459103,
      "longitude": 106.4515929,
      "bfa": false,
      "ownership": "Quaxo",
      "type": "Park",
      "Name": "Hudson"
    },
    {
      "taxicode": "504",
      "latitude": 62.2666019,
      "longitude": 27.1252002,
      "bfa": false,
      "ownership": "Abatz",
      "type": "Avenue",
      "Name": "Carioca"
    },
    {
      "taxicode": "4073",
      "latitude": 39.9510514,
      "longitude": 116.3380904,
      "bfa": true,
      "ownership": "Skaboo",
      "type": "Street",
      "Name": "Melby"
    },
    {
      "taxicode": "181",
      "latitude": -7.7888522,
      "longitude": 114.1914951,
      "bfa": true,
      "ownership": "Voonte",
      "type": "Street",
      "Name": "Sherman"
    },
    {
      "taxicode": "66901",
      "latitude": 50.1745286,
      "longitude": 12.6598918,
      "bfa": true,
      "ownership": "Jabbersphere",
      "type": "Hill",
      "Name": "Welch"
    },
    {
      "taxicode": "51",
      "latitude": -7.3937214,
      "longitude": 111.4129003,
      "bfa": false,
      "ownership": "Jaxworks",
      "type": "Parkway",
      "Name": "Banding"
    },
    {
      "taxicode": "3311",
      "latitude": 29.9193861,
      "longitude": 73.0747872,
      "bfa": false,
      "ownership": "Janyx",
      "type": "Pass",
      "Name": "Russell"
    },
    {
      "taxicode": "009",
      "latitude": 22.0106231,
      "longitude": -78.7107731,
      "bfa": false,
      "ownership": "Voomm",
      "type": "Place",
      "Name": "Marcy"
    },
    {
      "taxicode": "15",
      "latitude": -8.5988,
      "longitude": 115.2401,
      "bfa": false,
      "ownership": "Topicshots",
      "type": "Plaza",
      "Name": "Sauthoff"
    },
    {
      "taxicode": "10",
      "latitude": -14.34823,
      "longitude": -72.121559,
      "bfa": false,
      "ownership": "Zoovu",
      "type": "Hill",
      "Name": "Pond"
    },
    {
      "taxicode": "9",
      "latitude": -25.8631114,
      "longitude": -58.8821875,
      "bfa": true,
      "ownership": "Zooxo",
      "type": "Road",
      "Name": "Kensington"
    },
    {
      "taxicode": "53833",
      "latitude": 31.132093,
      "longitude": 33.8032762,
      "bfa": true,
      "ownership": "Midel",
      "type": "Lane",
      "Name": "La Follette"
    },
    {
      "taxicode": "0",
      "latitude": 49.4382375,
      "longitude": 1.0598119,
      "bfa": true,
      "ownership": "Skibox",
      "type": "Plaza",
      "Name": "Pepper Wood"
    },
    {
      "taxicode": "6159",
      "latitude": 14.6710601,
      "longitude": 102.026135,
      "bfa": true,
      "ownership": "Brightdog",
      "type": "Place",
      "Name": "La Follette"
    },
    {
      "taxicode": "743",
      "latitude": 17.0516148,
      "longitude": -13.9114989,
      "bfa": true,
      "ownership": "Twinte",
      "type": "Lane",
      "Name": "Cottonwood"
    },
    {
      "taxicode": "473",
      "latitude": 13.4712468,
      "longitude": 101.0978724,
      "bfa": true,
      "ownership": "Riffwire",
      "type": "Parkway",
      "Name": "Eliot"
    },
    {
      "taxicode": "68",
      "latitude": 59.3112521,
      "longitude": 14.496875,
      "bfa": true,
      "ownership": "Yodo",
      "type": "Center",
      "Name": "Glendale"
    },
    {
      "taxicode": "90872",
      "latitude": 28.73733,
      "longitude": 118.626991,
      "bfa": false,
      "ownership": "Wikivu",
      "type": "Court",
      "Name": "Hazelcrest"
    },
    {
      "taxicode": "84",
      "latitude": 46.6086054,
      "longitude": 15.6758117,
      "bfa": true,
      "ownership": "Wordtune",
      "type": "Trail",
      "Name": "Mallory"
    },
    {
      "taxicode": "76",
      "latitude": 51.42582,
      "longitude": 17.93378,
      "bfa": false,
      "ownership": "Realmix",
      "type": "Alley",
      "Name": "North"
    },
    {
      "taxicode": "40042",
      "latitude": 31.23285,
      "longitude": 121.467218,
      "bfa": false,
      "ownership": "Bluezoom",
      "type": "Plaza",
      "Name": "Arizona"
    },
    {
      "taxicode": "89",
      "latitude": 51.8281611,
      "longitude": 4.1481143,
      "bfa": true,
      "ownership": "Wikizz",
      "type": "Center",
      "Name": "Maple Wood"
    },
    {
      "taxicode": "453",
      "latitude": 41.6559343,
      "longitude": -8.7598916,
      "bfa": false,
      "ownership": "Twiyo",
      "type": "Street",
      "Name": "Pond"
    },
    {
      "taxicode": "435",
      "latitude": 48.413703,
      "longitude": 27.471753,
      "bfa": true,
      "ownership": "Teklist",
      "type": "Alley",
      "Name": "Crescent Oaks"
    },
    {
      "taxicode": "29",
      "latitude": 41.0901834,
      "longitude": -73.541744,
      "bfa": true,
      "ownership": "Cogilith",
      "type": "Park",
      "Name": "Sage"
    },
    {
      "taxicode": "378",
      "latitude": 27.3423771,
      "longitude": 53.1803558,
      "bfa": true,
      "ownership": "Aivee",
      "type": "Lane",
      "Name": "Anthes"
    },
    {
      "taxicode": "43594",
      "latitude": 49.5216159,
      "longitude": 22.937308,
      "bfa": true,
      "ownership": "Quamba",
      "type": "Point",
      "Name": "Ridge Oak"
    },
    {
      "taxicode": "3",
      "latitude": 23.377789,
      "longitude": 116.508701,
      "bfa": true,
      "ownership": "Omba",
      "type": "Parkway",
      "Name": "Center"
    },
    {
      "taxicode": "00",
      "latitude": 52.454148,
      "longitude": -1.7138034,
      "bfa": false,
      "ownership": "Rhybox",
      "type": "Crossing",
      "Name": "Thierer"
    },
    {
      "taxicode": "8707",
      "latitude": 40.02219,
      "longitude": 98.99644,
      "bfa": false,
      "ownership": "Fadeo",
      "type": "Road",
      "Name": "Coolidge"
    },
    {
      "taxicode": "4848",
      "latitude": 29.9588757,
      "longitude": 30.9006905,
      "bfa": false,
      "ownership": "Meeveo",
      "type": "Way",
      "Name": "Westend"
    },
    {
      "taxicode": "27555",
      "latitude": 34.5871389,
      "longitude": 73.912451,
      "bfa": true,
      "ownership": "Abatz",
      "type": "Pass",
      "Name": "Parkside"
    },
    {
      "taxicode": "75",
      "latitude": 51.13737,
      "longitude": 20.57188,
      "bfa": true,
      "ownership": "Meevee",
      "type": "Parkway",
      "Name": "Continental"
    },
    {
      "taxicode": "62344",
      "latitude": 40.02575,
      "longitude": 124.2869167,
      "bfa": false,
      "ownership": "InnoZ",
      "type": "Trail",
      "Name": "Pond"
    },
    {
      "taxicode": "9",
      "latitude": 50.4198861,
      "longitude": 4.9246444,
      "bfa": false,
      "ownership": "Leenti",
      "type": "Parkway",
      "Name": "Manitowish"
    },
    {
      "taxicode": "3",
      "latitude": 34.6939733,
      "longitude": -86.6107106,
      "bfa": false,
      "ownership": "Youspan",
      "type": "Drive",
      "Name": "Village Green"
    },
    {
      "taxicode": "673",
      "latitude": 9.762345,
      "longitude": 140.5161464,
      "bfa": true,
      "ownership": "Avamm",
      "type": "Terrace",
      "Name": "Messerschmidt"
    },
    {
      "taxicode": "25",
      "latitude": 41.267244,
      "longitude": 123.236944,
      "bfa": false,
      "ownership": "Cogidoo",
      "type": "Street",
      "Name": "Rowland"
    },
    {
      "taxicode": "7715",
      "latitude": 7.313755,
      "longitude": 38.0895886,
      "bfa": true,
      "ownership": "Youopia",
      "type": "Court",
      "Name": "Blackbird"
    },
    {
      "taxicode": "4",
      "latitude": 3.8458333,
      "longitude": 154.9416667,
      "bfa": true,
      "ownership": "Kwimbee",
      "type": "Plaza",
      "Name": "Everett"
    },
    {
      "taxicode": "0",
      "latitude": 8.8879709,
      "longitude": 2.5941239,
      "bfa": true,
      "ownership": "Vimbo",
      "type": "Parkway",
      "Name": "Waubesa"
    },
    {
      "taxicode": "1526",
      "latitude": -24.7406868,
      "longitude": -56.0222113,
      "bfa": false,
      "ownership": "Topiclounge",
      "type": "Place",
      "Name": "Vidon"
    },
    {
      "taxicode": "386",
      "latitude": -8.801499,
      "longitude": 115.229209,
      "bfa": true,
      "ownership": "Agimba",
      "type": "Road",
      "Name": "Hovde"
    },
    {
      "taxicode": "302",
      "latitude": 48.2414942,
      "longitude": -1.8090692,
      "bfa": true,
      "ownership": "Tavu",
      "type": "Road",
      "Name": "Pearson"
    },
    {
      "taxicode": "5383",
      "latitude": 25.941937,
      "longitude": 117.365052,
      "bfa": true,
      "ownership": "Realbridge",
      "type": "Hill",
      "Name": "Arapahoe"
    },
    {
      "taxicode": "9796",
      "latitude": 49.6542555,
      "longitude": 16.5117461,
      "bfa": true,
      "ownership": "Voolith",
      "type": "Junction",
      "Name": "School"
    },
    {
      "taxicode": "38",
      "latitude": 22.99732,
      "longitude": 113.87497,
      "bfa": true,
      "ownership": "Divanoodle",
      "type": "Crossing",
      "Name": "Orin"
    },
    {
      "taxicode": "171",
      "latitude": -43.2098678,
      "longitude": 171.3169384,
      "bfa": true,
      "ownership": "Blogpad",
      "type": "Street",
      "Name": "Upham"
    },
    {
      "taxicode": "3198",
      "latitude": 27.783878,
      "longitude": 106.585841,
      "bfa": false,
      "ownership": "Blognation",
      "type": "Pass",
      "Name": "Farwell"
    },
    {
      "taxicode": "70",
      "latitude": -26.1317252,
      "longitude": 28.1909907,
      "bfa": true,
      "ownership": "Topicblab",
      "type": "Avenue",
      "Name": "Eastwood"
    },
    {
      "taxicode": "2",
      "latitude": -25.3088443,
      "longitude": -56.9014072,
      "bfa": true,
      "ownership": "Zoomdog",
      "type": "Road",
      "Name": "Kim"
    },
    {
      "taxicode": "8",
      "latitude": 37.8412319,
      "longitude": 140.5135888,
      "bfa": true,
      "ownership": "Jaxspan",
      "type": "Point",
      "Name": "Florence"
    },
    {
      "taxicode": "316",
      "latitude": 35.1183378,
      "longitude": 69.2341133,
      "bfa": true,
      "ownership": "Tagtune",
      "type": "Court",
      "Name": "Thompson"
    },
    {
      "taxicode": "19783",
      "latitude": 28.4391484,
      "longitude": -16.2845785,
      "bfa": true,
      "ownership": "Topicshots",
      "type": "Place",
      "Name": "Veith"
    },
    {
      "taxicode": "95667",
      "latitude": -6.235617,
      "longitude": 38.693748,
      "bfa": true,
      "ownership": "Jabberstorm",
      "type": "Court",
      "Name": "Amoth"
    },
    {
      "taxicode": "8",
      "latitude": 37.6092461,
      "longitude": 61.8643252,
      "bfa": false,
      "ownership": "Reallinks",
      "type": "Trail",
      "Name": "Pawling"
    },
    {
      "taxicode": "106",
      "latitude": 39.9535181,
      "longitude": 44.5519782,
      "bfa": false,
      "ownership": "Zoombox",
      "type": "Hill",
      "Name": "Milwaukee"
    },
    {
      "taxicode": "6207",
      "latitude": 49.9713653,
      "longitude": 29.7636724,
      "bfa": true,
      "ownership": "Youtags",
      "type": "Pass",
      "Name": "Westend"
    },
    {
      "taxicode": "52021",
      "latitude": 31.630613,
      "longitude": 118.421214,
      "bfa": true,
      "ownership": "Katz",
      "type": "Junction",
      "Name": "Debs"
    },
    {
      "taxicode": "3636",
      "latitude": 10.3385626,
      "longitude": 122.9316044,
      "bfa": true,
      "ownership": "Linktype",
      "type": "Plaza",
      "Name": "Calypso"
    },
    {
      "taxicode": "39",
      "latitude": 46.7391866,
      "longitude": 7.6185958,
      "bfa": false,
      "ownership": "Kare",
      "type": "Crossing",
      "Name": "Jenifer"
    },
    {
      "taxicode": "33",
      "latitude": -8.5248669,
      "longitude": 117.3959673,
      "bfa": false,
      "ownership": "Mycat",
      "type": "Hill",
      "Name": "Elka"
    },
    {
      "taxicode": "71776",
      "latitude": 16.109324,
      "longitude": 119.8289909,
      "bfa": true,
      "ownership": "Skibox",
      "type": "Drive",
      "Name": "Nelson"
    },
    {
      "taxicode": "072",
      "latitude": 11.8478074,
      "longitude": 11.0706454,
      "bfa": true,
      "ownership": "Agivu",
      "type": "Drive",
      "Name": "Rusk"
    },
    {
      "taxicode": "2",
      "latitude": 29.718419,
      "longitude": 104.585735,
      "bfa": true,
      "ownership": "Plambee",
      "type": "Point",
      "Name": "Oak"
    },
    {
      "taxicode": "3",
      "latitude": 8.4101505,
      "longitude": 20.6481794,
      "bfa": true,
      "ownership": "Twitterbridge",
      "type": "Park",
      "Name": "Service"
    },
    {
      "taxicode": "966",
      "latitude": 35.880105,
      "longitude": 14.510096,
      "bfa": false,
      "ownership": "Flashpoint",
      "type": "Avenue",
      "Name": "Grover"
    },
    {
      "taxicode": "8",
      "latitude": 17.3026058,
      "longitude": -62.7176924,
      "bfa": false,
      "ownership": "Livefish",
      "type": "Plaza",
      "Name": "Michigan"
    },
    {
      "taxicode": "3",
      "latitude": 8.6791925,
      "longitude": 16.8591387,
      "bfa": false,
      "ownership": "Youtags",
      "type": "Pass",
      "Name": "Esker"
    },
    {
      "taxicode": "67",
      "latitude": 59.954793,
      "longitude": 30.2145439,
      "bfa": true,
      "ownership": "Divanoodle",
      "type": "Court",
      "Name": "David"
    },
    {
      "taxicode": "90886",
      "latitude": 41.3009263,
      "longitude": -95.8881542,
      "bfa": false,
      "ownership": "Trudoo",
      "type": "Parkway",
      "Name": "Stang"
    },
    {
      "taxicode": "52135",
      "latitude": 12.6417,
      "longitude": 123.9092,
      "bfa": true,
      "ownership": "Wikibox",
      "type": "Park",
      "Name": "Michigan"
    },
    {
      "taxicode": "4",
      "latitude": 41.54142,
      "longitude": 24.6964808,
      "bfa": true,
      "ownership": "Devcast",
      "type": "Hill",
      "Name": "Melody"
    },
    {
      "taxicode": "9201",
      "latitude": 40.7530733,
      "longitude": -73.8269805,
      "bfa": false,
      "ownership": "Realpoint",
      "type": "Court",
      "Name": "Paget"
    },
    {
      "taxicode": "7",
      "latitude": 21.0811211,
      "longitude": 105.8180306,
      "bfa": false,
      "ownership": "Wikizz",
      "type": "Lane",
      "Name": "Grover"
    },
    {
      "taxicode": "956",
      "latitude": -5.387502,
      "longitude": 26.9911288,
      "bfa": true,
      "ownership": "Fliptune",
      "type": "Crossing",
      "Name": "Armistice"
    },
    {
      "taxicode": "0775",
      "latitude": 41.3929185,
      "longitude": -8.5496995,
      "bfa": false,
      "ownership": "Photospace",
      "type": "Street",
      "Name": "John Wall"
    },
    {
      "taxicode": "695",
      "latitude": 18.5054233,
      "longitude": 102.4179988,
      "bfa": true,
      "ownership": "Kwimbee",
      "type": "Lane",
      "Name": "Hovde"
    },
    {
      "taxicode": "3",
      "latitude": 19.309169,
      "longitude": -70.6977162,
      "bfa": false,
      "ownership": "Eidel",
      "type": "Center",
      "Name": "Warner"
    },
    {
      "taxicode": "5",
      "latitude": -6.5687237,
      "longitude": 106.6491595,
      "bfa": false,
      "ownership": "Dablist",
      "type": "Point",
      "Name": "Hermina"
    },
    {
      "taxicode": "8",
      "latitude": 43.7441795,
      "longitude": 2.511999,
      "bfa": false,
      "ownership": "Fivespan",
      "type": "Circle",
      "Name": "South"
    },
    {
      "taxicode": "97",
      "latitude": 9.3847618,
      "longitude": -73.3001233,
      "bfa": false,
      "ownership": "Plambee",
      "type": "Pass",
      "Name": "Graedel"
    },
    {
      "taxicode": "1976",
      "latitude": 3.8149378,
      "longitude": 97.2005806,
      "bfa": true,
      "ownership": "Dablist",
      "type": "Hill",
      "Name": "Artisan"
    },
    {
      "taxicode": "6",
      "latitude": 40.767544,
      "longitude": 114.886335,
      "bfa": true,
      "ownership": "Janyx",
      "type": "Crossing",
      "Name": "Texas"
    },
    {
      "taxicode": "463",
      "latitude": -2.688962,
      "longitude": 111.622398,
      "bfa": true,
      "ownership": "Feedfire",
      "type": "Drive",
      "Name": "Saint Paul"
    },
    {
      "taxicode": "49596",
      "latitude": 7.9076232,
      "longitude": -80.4256976,
      "bfa": false,
      "ownership": "Chatterpoint",
      "type": "Pass",
      "Name": "West"
    },
    {
      "taxicode": "9829",
      "latitude": 56.7577875,
      "longitude": 43.5378796,
      "bfa": true,
      "ownership": "Quatz",
      "type": "Junction",
      "Name": "Hanover"
    },
    {
      "taxicode": "5540",
      "latitude": 2.9370409,
      "longitude": 98.611191,
      "bfa": false,
      "ownership": "Voolith",
      "type": "Plaza",
      "Name": "Twin Pines"
    },
    {
      "taxicode": "77646",
      "latitude": -32.8842032,
      "longitude": -68.7998021,
      "bfa": false,
      "ownership": "Eire",
      "type": "Place",
      "Name": "Dorton"
    },
    {
      "taxicode": "88746",
      "latitude": -9.8627946,
      "longitude": 124.3310364,
      "bfa": true,
      "ownership": "Kwinu",
      "type": "Lane",
      "Name": "Mockingbird"
    },
    {
      "taxicode": "351",
      "latitude": 35.846212,
      "longitude": 14.486396,
      "bfa": true,
      "ownership": "Ainyx",
      "type": "Street",
      "Name": "Harbort"
    },
    {
      "taxicode": "6",
      "latitude": 6.4675486,
      "longitude": 124.8060125,
      "bfa": false,
      "ownership": "Youspan",
      "type": "Terrace",
      "Name": "Gale"
    },
    {
      "taxicode": "584",
      "latitude": 54.5071478,
      "longitude": 30.4119546,
      "bfa": true,
      "ownership": "Teklist",
      "type": "Avenue",
      "Name": "Maywood"
    },
    {
      "taxicode": "6",
      "latitude": -9.7083227,
      "longitude": 119.3279386,
      "bfa": false,
      "ownership": "Zooxo",
      "type": "Point",
      "Name": "Chive"
    },
    {
      "taxicode": "0669",
      "latitude": -7.846761,
      "longitude": 110.3440238,
      "bfa": false,
      "ownership": "Camido",
      "type": "Point",
      "Name": "Springs"
    },
    {
      "taxicode": "6",
      "latitude": 5.7866228,
      "longitude": -6.5890166,
      "bfa": true,
      "ownership": "Mybuzz",
      "type": "Place",
      "Name": "Sunfield"
    },
    {
      "taxicode": "69613",
      "latitude": 28.407117,
      "longitude": 117.596452,
      "bfa": true,
      "ownership": "Wikivu",
      "type": "Circle",
      "Name": "Bowman"
    },
    {
      "taxicode": "75267",
      "latitude": 33.423357,
      "longitude": 109.152893,
      "bfa": false,
      "ownership": "Wordpedia",
      "type": "Avenue",
      "Name": "Gulseth"
    },
    {
      "taxicode": "92862",
      "latitude": 29.134418,
      "longitude": 115.762844,
      "bfa": true,
      "ownership": "Bubblemix",
      "type": "Junction",
      "Name": "Mariners Cove"
    },
    {
      "taxicode": "493",
      "latitude": 60.0142824,
      "longitude": 30.299306,
      "bfa": true,
      "ownership": "Mynte",
      "type": "Junction",
      "Name": "Beilfuss"
    },
    {
      "taxicode": "580",
      "latitude": 45.6717716,
      "longitude": 15.6507903,
      "bfa": true,
      "ownership": "Midel",
      "type": "Place",
      "Name": "Lawn"
    },
    {
      "taxicode": "01648",
      "latitude": 45.8272842,
      "longitude": 20.4615173,
      "bfa": true,
      "ownership": "Aimbu",
      "type": "Street",
      "Name": "Pleasure"
    },
    {
      "taxicode": "7",
      "latitude": -21.2399347,
      "longitude": -43.7764925,
      "bfa": true,
      "ownership": "Blogtag",
      "type": "Way",
      "Name": "Golf"
    },
    {
      "taxicode": "32",
      "latitude": 56.85188,
      "longitude": 33.44869,
      "bfa": false,
      "ownership": "Browsecat",
      "type": "Crossing",
      "Name": "Katie"
    },
    {
      "taxicode": "241",
      "latitude": 35.0663073,
      "longitude": 134.1496427,
      "bfa": false,
      "ownership": "LiveZ",
      "type": "Point",
      "Name": "Dapin"
    },
    {
      "taxicode": "70",
      "latitude": 40.3912773,
      "longitude": -8.2469806,
      "bfa": false,
      "ownership": "Dabtype",
      "type": "Junction",
      "Name": "Dixon"
    },
    {
      "taxicode": "821",
      "latitude": -6.6063841,
      "longitude": 106.7617984,
      "bfa": false,
      "ownership": "Mybuzz",
      "type": "Place",
      "Name": "Fieldstone"
    },
    {
      "taxicode": "51",
      "latitude": 29.584292,
      "longitude": 111.380014,
      "bfa": false,
      "ownership": "Trudoo",
      "type": "Park",
      "Name": "Heath"
    },
    {
      "taxicode": "989",
      "latitude": -20.2877726,
      "longitude": -45.5396954,
      "bfa": true,
      "ownership": "Demimbu",
      "type": "Terrace",
      "Name": "Armistice"
    },
    {
      "taxicode": "8",
      "latitude": 46.6693059,
      "longitude": 5.5466073,
      "bfa": false,
      "ownership": "Dabjam",
      "type": "Alley",
      "Name": "Dexter"
    },
    {
      "taxicode": "703",
      "latitude": -7.1265553,
      "longitude": 108.6383454,
      "bfa": false,
      "ownership": "Flashset",
      "type": "Road",
      "Name": "Kingsford"
    },
    {
      "taxicode": "913",
      "latitude": 30.762251,
      "longitude": 114.0189716,
      "bfa": true,
      "ownership": "Kwinu",
      "type": "Drive",
      "Name": "Butterfield"
    },
    {
      "taxicode": "41",
      "latitude": -0.45964,
      "longitude": 100.590599,
      "bfa": false,
      "ownership": "Yozio",
      "type": "Hill",
      "Name": "Daystar"
    },
    {
      "taxicode": "94291",
      "latitude": -32.7248333,
      "longitude": 25.5799503,
      "bfa": true,
      "ownership": "Realfire",
      "type": "Lane",
      "Name": "Shoshone"
    },
    {
      "taxicode": "17208",
      "latitude": 8.3331847,
      "longitude": 123.8426301,
      "bfa": true,
      "ownership": "Mynte",
      "type": "Park",
      "Name": "Forster"
    },
    {
      "taxicode": "96242",
      "latitude": -20.8878921,
      "longitude": 55.4247503,
      "bfa": false,
      "ownership": "Trilia",
      "type": "Center",
      "Name": "Blackbird"
    },
    {
      "taxicode": "1922",
      "latitude": 59.4051627,
      "longitude": 30.3268427,
      "bfa": false,
      "ownership": "Ozu",
      "type": "Alley",
      "Name": "Blue Bill Park"
    },
    {
      "taxicode": "707",
      "latitude": -7.258661,
      "longitude": 107.7710234,
      "bfa": true,
      "ownership": "Topiczoom",
      "type": "Parkway",
      "Name": "Harper"
    },
    {
      "taxicode": "9",
      "latitude": 60.6204071,
      "longitude": 25.8776098,
      "bfa": true,
      "ownership": "Buzzster",
      "type": "Point",
      "Name": "Corscot"
    },
    {
      "taxicode": "79084",
      "latitude": 52.2283049,
      "longitude": 21.355139,
      "bfa": false,
      "ownership": "Livepath",
      "type": "Point",
      "Name": "Coleman"
    },
    {
      "taxicode": "04",
      "latitude": 22.1960179,
      "longitude": 92.2947639,
      "bfa": true,
      "ownership": "Skimia",
      "type": "Alley",
      "Name": "Fair Oaks"
    },
    {
      "taxicode": "40607",
      "latitude": -11.2750411,
      "longitude": -37.7879303,
      "bfa": false,
      "ownership": "Pixope",
      "type": "Alley",
      "Name": "Randy"
    },
    {
      "taxicode": "65",
      "latitude": 15.399082,
      "longitude": 119.9327646,
      "bfa": false,
      "ownership": "Rhyzio",
      "type": "Point",
      "Name": "Corscot"
    },
    {
      "taxicode": "79270",
      "latitude": 53.2888321,
      "longitude": -6.7515223,
      "bfa": true,
      "ownership": "Jabbersphere",
      "type": "Alley",
      "Name": "Morning"
    },
    {
      "taxicode": "9",
      "latitude": -8.7843,
      "longitude": 120.4706,
      "bfa": true,
      "ownership": "Mycat",
      "type": "Trail",
      "Name": "Cody"
    },
    {
      "taxicode": "21",
      "latitude": 48.8171378,
      "longitude": 2.4196694,
      "bfa": true,
      "ownership": "Jabberstorm",
      "type": "Trail",
      "Name": "Lukken"
    },
    {
      "taxicode": "51909",
      "latitude": -9.975524,
      "longitude": 123.867401,
      "bfa": false,
      "ownership": "Devshare",
      "type": "Plaza",
      "Name": "Bluejay"
    },
    {
      "taxicode": "1836",
      "latitude": -38.951448,
      "longitude": -67.993234,
      "bfa": false,
      "ownership": "Kazio",
      "type": "Plaza",
      "Name": "Darwin"
    },
    {
      "taxicode": "59",
      "latitude": 48.8120404,
      "longitude": 2.2718631,
      "bfa": false,
      "ownership": "Centidel",
      "type": "Trail",
      "Name": "Donald"
    },
    {
      "taxicode": "19392",
      "latitude": 48.1862896,
      "longitude": 99.856925,
      "bfa": true,
      "ownership": "Tazzy",
      "type": "Center",
      "Name": "Farragut"
    },
    {
      "taxicode": "4",
      "latitude": -7.7823871,
      "longitude": 110.374855,
      "bfa": false,
      "ownership": "Jayo",
      "type": "Alley",
      "Name": "Moulton"
    },
    {
      "taxicode": "35157",
      "latitude": -31.4534131,
      "longitude": -64.2089174,
      "bfa": false,
      "ownership": "Gigaclub",
      "type": "Circle",
      "Name": "Glendale"
    },
    {
      "taxicode": "9",
      "latitude": 36.681449,
      "longitude": 69.1149051,
      "bfa": false,
      "ownership": "Youfeed",
      "type": "Hill",
      "Name": "Mockingbird"
    },
    {
      "taxicode": "95",
      "latitude": 48.8348801,
      "longitude": 2.5070548,
      "bfa": true,
      "ownership": "Yodel",
      "type": "Circle",
      "Name": "Mariners Cove"
    },
    {
      "taxicode": "61840",
      "latitude": -10.1917127,
      "longitude": 123.5616058,
      "bfa": true,
      "ownership": "Tagcat",
      "type": "Terrace",
      "Name": "Petterle"
    },
    {
      "taxicode": "33847",
      "latitude": -7.8003628,
      "longitude": 110.0181673,
      "bfa": false,
      "ownership": "Oyonder",
      "type": "Drive",
      "Name": "Bobwhite"
    },
    {
      "taxicode": "56783",
      "latitude": 59.6806933,
      "longitude": 12.4859801,
      "bfa": true,
      "ownership": "Thoughtsphere",
      "type": "Alley",
      "Name": "Arkansas"
    },
    {
      "taxicode": "6",
      "latitude": 50.2620534,
      "longitude": 22.4210807,
      "bfa": true,
      "ownership": "Meezzy",
      "type": "Terrace",
      "Name": "Prairie Rose"
    },
    {
      "taxicode": "87245",
      "latitude": 46.9063815,
      "longitude": 102.7636515,
      "bfa": false,
      "ownership": "Plajo",
      "type": "Junction",
      "Name": "Gulseth"
    },
    {
      "taxicode": "1879",
      "latitude": 62.1738098,
      "longitude": 29.2055142,
      "bfa": false,
      "ownership": "Zoomzone",
      "type": "Trail",
      "Name": "Monica"
    },
    {
      "taxicode": "62",
      "latitude": 49.1606317,
      "longitude": 6.9179709,
      "bfa": true,
      "ownership": "Vinder",
      "type": "Avenue",
      "Name": "David"
    },
    {
      "taxicode": "7882",
      "latitude": 37.8311926,
      "longitude": 112.5870889,
      "bfa": false,
      "ownership": "Quaxo",
      "type": "Plaza",
      "Name": "Erie"
    },
    {
      "taxicode": "985",
      "latitude": -17.3474338,
      "longitude": -52.7455935,
      "bfa": false,
      "ownership": "Chatterpoint",
      "type": "Junction",
      "Name": "Jay"
    },
    {
      "taxicode": "3",
      "latitude": 23.296786,
      "longitude": 113.823135,
      "bfa": true,
      "ownership": "Meetz",
      "type": "Hill",
      "Name": "Prairie Rose"
    },
    {
      "taxicode": "5111",
      "latitude": 24.77848,
      "longitude": 110.496593,
      "bfa": false,
      "ownership": "Yodoo",
      "type": "Way",
      "Name": "Iowa"
    },
    {
      "taxicode": "48",
      "latitude": -13.6616515,
      "longitude": -73.3767641,
      "bfa": true,
      "ownership": "Twitterwire",
      "type": "Drive",
      "Name": "Farragut"
    },
    {
      "taxicode": "0745",
      "latitude": 50.0919285,
      "longitude": 13.1629837,
      "bfa": false,
      "ownership": "Wikivu",
      "type": "Place",
      "Name": "Arapahoe"
    },
    {
      "taxicode": "836",
      "latitude": 36.222959,
      "longitude": 107.788257,
      "bfa": false,
      "ownership": "Podcat",
      "type": "Crossing",
      "Name": "Mcguire"
    },
    {
      "taxicode": "85348",
      "latitude": 54.9999653,
      "longitude": 41.2962218,
      "bfa": true,
      "ownership": "Brainbox",
      "type": "Street",
      "Name": "Morrow"
    },
    {
      "taxicode": "2",
      "latitude": -3.4964316,
      "longitude": 102.6934048,
      "bfa": false,
      "ownership": "Feedfire",
      "type": "Alley",
      "Name": "Erie"
    },
    {
      "taxicode": "6",
      "latitude": 50.1801755,
      "longitude": 28.7362455,
      "bfa": true,
      "ownership": "Centimia",
      "type": "Trail",
      "Name": "Dakota"
    },
    {
      "taxicode": "86524",
      "latitude": 22.517585,
      "longitude": 113.39277,
      "bfa": false,
      "ownership": "Voonix",
      "type": "Hill",
      "Name": "Morrow"
    },
    {
      "taxicode": "7",
      "latitude": 9.6008747,
      "longitude": 41.850142,
      "bfa": true,
      "ownership": "Flashset",
      "type": "Park",
      "Name": "Barnett"
    },
    {
      "taxicode": "2636",
      "latitude": 39.912288,
      "longitude": 116.365867,
      "bfa": false,
      "ownership": "Jaxbean",
      "type": "Road",
      "Name": "Pierstorff"
    },
    {
      "taxicode": "45298",
      "latitude": 55.662882,
      "longitude": 37.5826719,
      "bfa": false,
      "ownership": "Youfeed",
      "type": "Alley",
      "Name": "Starling"
    },
    {
      "taxicode": "86",
      "latitude": 18.506048,
      "longitude": 110.037503,
      "bfa": true,
      "ownership": "Gabtype",
      "type": "Place",
      "Name": "Main"
    },
    {
      "taxicode": "10",
      "latitude": 43.8986,
      "longitude": 39.3467,
      "bfa": true,
      "ownership": "Jetpulse",
      "type": "Alley",
      "Name": "Oak Valley"
    },
    {
      "taxicode": "97344",
      "latitude": 47.07472,
      "longitude": 35.14444,
      "bfa": true,
      "ownership": "Thoughtmix",
      "type": "Court",
      "Name": "Green"
    },
    {
      "taxicode": "126",
      "latitude": 55.7372478,
      "longitude": 38.1800493,
      "bfa": true,
      "ownership": "Eare",
      "type": "Junction",
      "Name": "Monterey"
    },
    {
      "taxicode": "87",
      "latitude": -31.4540779,
      "longitude": -64.1673375,
      "bfa": true,
      "ownership": "Roodel",
      "type": "Way",
      "Name": "Village"
    },
    {
      "taxicode": "1",
      "latitude": 19.0807684,
      "longitude": -71.6986206,
      "bfa": false,
      "ownership": "Thoughtworks",
      "type": "Pass",
      "Name": "Crest Line"
    },
    {
      "taxicode": "6",
      "latitude": 31.4599979,
      "longitude": -7.2858562,
      "bfa": false,
      "ownership": "Dynabox",
      "type": "Center",
      "Name": "Southridge"
    },
    {
      "taxicode": "8",
      "latitude": 14.5994449,
      "longitude": 120.9990792,
      "bfa": false,
      "ownership": "Yotz",
      "type": "Terrace",
      "Name": "Katie"
    },
    {
      "taxicode": "96",
      "latitude": 52.8303055,
      "longitude": 62.5102237,
      "bfa": true,
      "ownership": "Linktype",
      "type": "Junction",
      "Name": "Bluejay"
    },
    {
      "taxicode": "96232",
      "latitude": 61.8342207,
      "longitude": -6.816861,
      "bfa": false,
      "ownership": "Riffwire",
      "type": "Alley",
      "Name": "Talmadge"
    },
    {
      "taxicode": "9814",
      "latitude": 13.6256926,
      "longitude": 123.1848939,
      "bfa": true,
      "ownership": "Dynabox",
      "type": "Road",
      "Name": "Loomis"
    },
    {
      "taxicode": "4145",
      "latitude": 24.0993658,
      "longitude": 90.1046678,
      "bfa": false,
      "ownership": "Lazz",
      "type": "Parkway",
      "Name": "Arapahoe"
    },
    {
      "taxicode": "8",
      "latitude": 23.714316,
      "longitude": 103.267142,
      "bfa": true,
      "ownership": "Wikivu",
      "type": "Pass",
      "Name": "Dahle"
    },
    {
      "taxicode": "61",
      "latitude": 31.628871,
      "longitude": 65.7371749,
      "bfa": false,
      "ownership": "Wikizz",
      "type": "Road",
      "Name": "Lakeland"
    },
    {
      "taxicode": "753",
      "latitude": 40.8338937,
      "longitude": 22.3879813,
      "bfa": false,
      "ownership": "Realbuzz",
      "type": "Center",
      "Name": "Merrick"
    },
    {
      "taxicode": "5929",
      "latitude": 27.756647,
      "longitude": 118.035309,
      "bfa": true,
      "ownership": "Tagtune",
      "type": "Street",
      "Name": "Bashford"
    },
    {
      "taxicode": "21",
      "latitude": 49.417735,
      "longitude": 19.6808046,
      "bfa": true,
      "ownership": "Jabbercube",
      "type": "Circle",
      "Name": "Emmet"
    },
    {
      "taxicode": "6",
      "latitude": 14.279014,
      "longitude": -87.6568799,
      "bfa": false,
      "ownership": "Voonix",
      "type": "Hill",
      "Name": "Forest"
    },
    {
      "taxicode": "69866",
      "latitude": 27.3457474,
      "longitude": 35.7243073,
      "bfa": true,
      "ownership": "Gabcube",
      "type": "Court",
      "Name": "Scott"
    },